     2.10           OBSERVATION DATA    G (GPS)             RINEX VERSION / TYPE
RTKCONV 2.4.2                           20161014 212731 UTC PGM / RUN BY / DATE 
log: C:\Users\macshen\Desktop\hp_1014.ubx                   COMMENT             
format: u-blox                                              COMMENT             
                                                            MARKER NAME         
                                                            MARKER NUMBER       
                                                            OBSERVER / AGENCY   
                                                            REC # / TYPE / VERS 
                                                            ANT # / TYPE        
   517531.0118 -4696407.9380  4270461.4284                  APPROX POSITION XYZ 
        0.0000        0.0000        0.0000                  ANTENNA: DELTA H/E/N
     1     1                                                WAVELENGTH FACT L1/2
     4    C1    L1    D1    S1                              # / TYPES OF OBSERV 
  1980     1    11    20    49   27.8320000     GPS         TIME OF FIRST OBS   
  2016    10    14    21     3   55.2000000     GPS         TIME OF LAST OBS    
                                                            END OF HEADER       
 80  1 11 20 49 27.8320000  0  8G29G24G18G20G 4G 5G13G15
  22266931.035       18831.7632      -2770.065          48.000  
  23434710.286      -24952.0862       3933.103          42.000  
  21562803.529      -15286.2702       2452.874          45.000  
  19761927.412        2426.4062       -258.251          45.000  
  22687363.128       16032.0052      -2413.768          41.000  
  23520822.155       15826.6522      -2309.112          40.000  
  20953566.922       10021.3442      -1420.240          46.000  
  19700272.844       -1165.6102        292.562          47.000  
 80  1 11 20 49 28.0000000  0  8G29G24G18G20G 4G 5G13G15
  22267019.665       19297.1392      -2770.078          48.000  
  23434584.191      -25612.8292       3933.523          42.000  
  21562724.916      -15698.3692       2453.256          45.000  
  19761935.998        2469.8362       -258.945          45.000  
  22687440.641       16437.5952      -2413.803          41.000  
  23520895.742       16214.6602      -2310.645          40.000  
  20953612.746       10260.0012      -1420.484          46.000  
  19700263.089       -1214.7302        291.913          46.000  
 80  1 11 20 49 28.2000000  0  8G29G24G18G20G 4G 5G13G15
  22267125.431       19851.2622      -2770.480          48.000  
  23434434.136      -26399.3572       3932.280          42.000  
  21562631.365      -16188.8692       2452.560          45.000  
  19761945.648        2521.6402       -258.969          45.000  
  22687533.023       16920.5352      -2414.330          41.000  
  23520984.320       16676.6912      -2310.690          40.000  
  20953666.440       10544.2292      -1421.247          46.000  
  19700253.247       -1273.0952        291.862          47.000  
 80  1 11 20 49 28.4000000  0  9G29G24G18G20G 4G 5G21G13G15
  22267231.074       20405.4882      -2771.766          48.000  
  23434284.309      -27185.7792       3932.115          42.000  
  21562537.675      -16679.2632       2451.866          45.000  
  19761955.368        2573.5462       -259.677          45.000  
  22687624.706       17403.5802      -2416.783          41.000  
  23521071.588       17138.8062      -2310.686          40.000  
  20789862.956      -13566.2762       2071.283          46.000  
  20953720.431       10828.5542      -1422.305          46.000  
  19700242.341       -1331.3412        291.178          47.000  
 80  1 11 20 49 28.6000000  0  9G29G24G18G20G 4G 5G21G13G15
  22267336.892       20959.7902      -2771.898          48.000  
  23434134.778      -27972.1252       3931.375          42.000  
  21562444.368      -17169.6052       2451.390          45.000  
  19761965.174        2625.5452       -260.297          45.000  
  22687716.808       17886.7072      -2415.854          41.000  
  23521159.589       17600.9952      -2310.777          40.000  
  20789784.500      -13980.4902       2070.739          46.000  
  20953774.806       11112.9782      -1422.410          46.000  
  19700231.120       -1389.4952        290.162          47.000  
 80  1 11 20 49 28.8000000  0  9G29G24G18G20G 4G 5G21G13G15
  22267442.082       21514.2072      -2772.386          48.000  
  23433985.439      -28758.3672       3931.415          42.000  
  21562351.062      -17659.8282       2450.570          45.000  
  19761975.278        2677.6542       -260.627          45.000  
  22687808.718       18369.9292      -2416.282          41.000  
  23521247.660       18063.2802      -2310.684          40.000  
  20789706.218      -14394.5652       2070.595          46.000  
  20953828.919       11397.5352      -1422.604          46.000  
  19700220.092       -1447.5082        290.192          47.000  
 80  1 11 20 49 29.0000000  0  9G29G24G18G20G 4G 5G21G13G15
  22267547.726       22068.7212      -2772.850          48.000  
  23433836.134      -29544.5232       3930.592          42.000  
  21562257.721      -18149.9502       2450.267          45.000  
  19761985.067        2729.8622       -261.202          45.000  
  22687900.925       18853.2512      -2416.964          41.000  
  23521335.819       18525.6652      -2312.105          40.000  
  20789627.343      -14808.5602       2069.615          46.000  
  20953883.032       11682.1792      -1423.636          46.000  
  19700209.063       -1505.4232        289.602          47.000  
 80  1 11 20 49 29.2000000  0  9G29G24G18G20G 4G 5G21G13G15
  22267653.142       22623.3002      -2773.477          48.000  
  23433686.673      -30330.6072       3930.402          42.000  
  21562164.676      -18640.0162       2449.269          45.000  
  19761995.101        2782.1432       -261.869          45.000  
  22687992.888       19336.6702      -2417.908          41.000  
  23521423.855       18988.0932      -2312.391          40.000  
  20789548.608      -15222.4782       2069.055          46.000  
  20953937.232       11966.9042      -1424.430          46.000  
  19700197.825       -1563.2542        288.778          47.000  
 80  1 11 20 49 29.4000000  0  9G29G24G18G20G 4G 5G21G13G15
  22267758.769       23178.0002      -2774.015          48.000  
  23433537.177      -31116.5912       3929.413          42.000  
  21562071.213      -19129.9522       2449.518          45.000  
  19762005.205        2834.5502       -262.141          45.000  
  22688084.938       19820.1742      -2417.729          41.000  
  23521512.049       19450.6502      -2313.551          40.000  
  20789469.646      -15636.2722       2068.892          46.000  
  20953991.450       12251.7812      -1424.814          46.000  
  19700186.919       -1620.9442        287.987          47.000  
 80  1 11 20 49 29.6000000  0 10G29G24G18G20G 4G 5G21G10G13G15
  22267864.255       23732.7982      -2774.554          48.000  
  23433387.768      -31902.4852       3928.866          42.000  
  21561977.767      -19619.8032       2448.568          45.000  
  19762015.291        2887.0522       -263.044          45.000  
  22688177.022       20303.7972      -2418.107          41.000  
  23521599.963       19913.2882      -2313.710          40.000  
  20789390.788      -16049.9612       2068.321          46.000  
  24280428.003      -21805.4082       3470.891          35.000  
  20954045.859       12536.7532      -1425.317          46.000  
  19700175.890       -1678.5252        287.610          47.000  
 80  1 11 20 49 29.8000000  0 10G29G24G18G20G 4G 5G21G10G13G15
  22267969.619       24287.7102      -2774.503          48.000  
  23433238.290      -32688.2592       3928.322          42.000  
  21561884.670      -20109.5482       2448.410          45.000  
  19762025.272        2939.6802       -263.301          45.000  
  22688268.863       20787.5522      -2419.125          41.000  
  23521688.034       20376.0452      -2313.846          40.000  
  20789312.244      -16463.5272       2067.428          46.000  
  24280295.120      -22499.5642       3471.068          35.000  
  20954100.025       12821.8552      -1425.469          46.000  
  19700164.879       -1735.9622        287.330          47.000  
 80  1 11 20 49 30.0000000  0 10G29G24G18G20G 4G 5G21G10G13G15
  22268075.106       24842.7182      -2775.491          48.000  
  23433088.794      -33473.9482       3928.504          42.000  
  21561791.398      -20599.1892       2447.712          45.000  
  19762035.428        2992.4062       -263.877          45.000  
  22688361.017       21271.3992      -2419.352          41.000  
  23521775.739       20838.8692      -2315.554          40.000  
  20789233.596      -16876.9872       2067.019          46.000  
  24280162.830      -23193.6542       3469.641          35.000  
  20954154.347       13107.0562      -1426.306          46.000  
  19700154.007       -1793.3102        286.258          47.000  
 80  1 11 20 49 30.2000000  0 10G29G24G18G20G 4G 5G21G10G13G15
  22268180.575       25397.7882      -2775.778          48.000  
  23432939.210      -34259.5892       3928.367          42.000  
  21561698.109      -21088.7772       2447.831          45.000  
  19762045.410        3045.1892       -264.055          45.000  
  22688453.015       21755.2912      -2419.193          41.000  
  23521864.019       21301.7552      -2315.766          40.000  
  20789155.000      -17290.4002       2066.654          46.000  
  24280030.679      -23887.7372       3469.417          35.000  
  20954208.600       13392.3292      -1426.870          46.000  
  19700143.171       -1850.5682        286.240          47.000  
 80  1 11 20 49 30.4000000  0 10G29G24G18G20G 4G 5G21G10G13G15
  22268286.480       25952.9682      -2776.403          48.000  
  23432789.487      -35045.1162       3927.373          42.000  
  21561605.239      -21578.2542       2447.401          45.000  
  19762055.426        3098.0992       -264.662          45.000  
  22688545.030       22239.2882      -2420.252          41.000  
  23521951.933       21764.7632      -2315.532          40.000  
  20789076.370      -17703.6792       2066.148          46.000  
  24279898.982      -24581.6542       3469.862          35.000  
  20954263.010       13677.7402      -1427.375          46.000  
  19700132.212       -1907.6962        285.036          47.000  
 80  1 11 20 49 30.6000000  0 10G29G24G18G20G 4G 5G21G10G13G15
  22268392.211       26508.2502      -2776.120          48.000  
  23432640.008      -35830.5562       3927.246          42.000  
  21561512.194      -22067.6382       2447.042          45.000  
  19762065.564        3151.0952       -265.190          45.000  
  22688637.149       22723.4512      -2420.214          41.000  
  23522040.406       22227.8452      -2315.333          40.000  
  20788997.616      -18116.8722       2065.598          46.000  
  24279766.744      -25275.5102       3468.831          35.000  
  20954317.105       13963.2422      -1427.920          46.000  
  19700121.043       -1964.7232        284.778          47.000  
 80  1 11 20 49 30.8000000  0 10G29G24G18G20G 4G 5G21G10G13G15
  22268497.889       27063.6102      -2776.897          48.000  
  23432490.268      -36615.9112       3926.561          42.000  
  21561419.080      -22556.9502       2446.730          45.000  
  19762075.720        3204.1972       -265.448          45.000  
  22688729.374       23207.6182      -2420.623          41.000  
  23522128.442       22690.9882      -2316.660          40.000  
  20788919.073      -18529.9602       2065.549          46.000  
  24279634.751      -25969.2752       3469.390          35.000  
  20954371.620       14248.8492      -1428.526          46.000  
  19700110.242       -2021.6362        284.418          47.000  
 80  1 11 20 49 31.0000000  0 10G29G24G18G20G 4G 5G21G10G13G15
  22268603.411       27619.0502      -2777.293          48.000  
  23432341.331      -37401.2042       3925.995          42.000  
  21561326.035      -23046.1862       2446.201          45.000  
  19762085.964        3257.3752       -265.858          45.000  
  22688821.546       23691.8982      -2421.789          41.000  
  23522216.705       23154.2172      -2316.123          40.000  
  20788840.425      -18942.9772       2064.926          46.000  
  24279502.583      -26662.9782       3467.951          35.000  
  20954425.768       14534.5422      -1428.525          46.000  
  19700099.300       -2078.4632        284.137          46.000  
 80  1 11 20 49 31.2000000  0 10G29G24G18G20G 4G 5G21G10G13G15
  22268709.054       28174.5652      -2778.086          48.000  
  23432191.817      -38186.4012       3926.326          42.000  
  21561232.886      -23535.3502       2445.071          45.000  
  19762096.190        3310.6252       -266.772          45.000  
  22688913.822       24176.2602      -2421.221          41.000  
  23522304.829       23617.5172      -2316.782          40.000  
  20788761.864      -19355.9132       2063.988          46.000  
  24279370.869      -27356.6002       3468.380          35.000  
  20954480.143       14820.3152      -1429.566          46.000  
  19700088.307       -2135.2102        283.226          47.000  
 80  1 11 20 49 31.4000000  0 10G29G24G18G20G 4G 5G21G10G13G15
  22268814.628       28730.1532      -2777.484          48.000  
  23432042.269      -38971.5562       3925.815          42.000  
  21561139.999      -24024.4222       2445.803          45.000  
  19762106.049        3363.9652       -266.273          45.000  
  22689006.012       24660.6782      -2421.915          41.000  
  23522393.057       24080.8842      -2317.132          40.000  
  20788683.338      -19768.7632       2064.221          46.000  
  24279238.788      -28050.1862       3467.991          35.000  
  20954534.727       15106.1892      -1429.093          46.000  
  19700077.540       -2191.8542        283.277          46.000  
 80  1 11 20 49 31.6000000  0 10G29G24G18G20G 4G 5G21G10G13G15
  22268920.585       29285.8112      -2778.662          48.000  
  23431893.104      -39756.6382       3925.440          42.000  
  21561046.866      -24513.4562       2445.065          45.000  
  19762116.274        3417.3702       -267.331          45.000  
  22689098.027       25145.1882      -2423.018          41.000  
  23522481.599       24544.3092      -2317.587          40.000  
  20788604.689      -20181.5422       2063.688          46.000  
  24279106.934      -28743.6662       3468.185          35.000  
  20954588.857       15392.1302      -1430.498          46.000  
  19700066.738       -2248.4062        282.837          46.000  
 80  1 11 20 49 31.8000000  0 10G29G24G18G20G 4G 5G21G10G13G15
  22269026.055       29841.5512      -2778.812          48.000  
  23431743.782      -40541.6402       3924.873          42.000  
  21560953.595      -25002.3882       2444.379          44.000  
  19762126.343        3470.8692       -267.471          45.000  
  22689190.338       25629.7692      -2423.160          41.000  
  23522569.792       25007.8062      -2318.463          40.000  
  20788526.338      -20594.2302       2063.266          46.000  
  24278975.115      -29437.0882       3467.864          35.000  
  20954643.197       15678.1612      -1430.684          46.000  
  19700056.320       -2304.8712        281.978          46.000  
 16 10 14 20 49 32.0000000  0 10G29G24G18G20G 4G 5G21G10G13G15
  22269131.925       30397.4052      -2779.709          48.000  
  23431594.251      -41326.5562       3924.155          42.000  
  21560860.707      -25491.2132       2443.646          44.000  
  19762136.429        3524.4692       -268.705          45.000  
  22689282.423       26114.4642      -2424.256          41.000  
  23522658.178       25471.4162      -2318.447          40.000  
  20788447.812      -21006.7982       2062.735          46.000  
  24278843.453      -30130.4422       3466.962          35.000  
  20954697.956       15964.3252      -1430.547          46.000  
  19700045.414       -2361.2082        281.309          46.000  
 16 10 14 20 49 32.2000000  0 10G29G24G18G20G 4G 5G21G10G13G15
  22269237.621       30953.3552      -2779.846          48.000  
  23431444.947      -42111.3732       3924.020          42.000  
  21560767.698      -25979.9542       2443.765          44.000  
  19762146.900        3578.1662       -268.373          45.000  
  22689374.700       26599.2532      -2424.816          41.000  
  23522746.633       25935.1112      -2318.325          40.000  
  20788369.164      -21419.2862       2062.110          46.000  
  24278711.669      -30823.6732       3464.721          35.000  
  20954752.610       16250.5902      -1431.044          46.000  
  19700034.647       -2417.4382        280.980          46.000  
 16 10 14 20 49 32.4000000  0 10G29G24G18G20G 4G 5G21G10G13G15
  22269343.265       31509.3312      -2780.375          48.000  
  23431295.364      -42896.1552       3924.174          42.000  
  21560674.775      -26468.6732       2443.590          44.000  
  19762157.160        3631.9112       -268.772          45.000  
  22689466.976       27084.0842      -2424.272          41.000  
  23522834.791       26398.8362      -2318.954          40.000  
  20788290.498      -21831.7262       2062.139          46.000  
  24278579.640      -31516.8932       3465.602          35.000  
  20954806.897       16536.8932      -1432.387          46.000  
  19700024.020       -2473.6192        280.640          46.000  
 16 10 14 20 49 32.6000000  0 10G29G24G18G20G 4G 5G21G10G13G15
  22269449.205       32065.3762      -2780.177          48.000  
  23431146.269      -43680.8952       3923.226          42.000  
  21560581.661      -26957.3172       2443.131          45.000  
  19762167.299        3685.7242       -269.074          45.000  
  22689559.253       27568.9722      -2425.395          41.000  
  23522922.880       26862.6002      -2319.324          40.000  
  20788211.955      -22244.0942       2061.598          46.000  
  24278447.542      -32210.0192       3466.516          35.000  
  20954861.569       16823.2822      -1432.028          46.000  
  19700013.043       -2529.7192        280.531          46.000  
 16 10 14 20 49 32.8000000  0 10G29G24G18G20G 4G 5G21G10G13G15
  22269555.197       32621.4902      -2780.836          48.000  
  23430996.878      -44465.5492       3923.434          42.000  
  21560488.546      -27445.9032       2443.213          45.000  
  19762177.228        3739.6092       -269.364          45.000  
  22689651.460       28053.9332      -2424.394          41.000  
  23523010.794       27326.4482      -2319.557          40.000  
  20788133.620      -22656.3862       2061.493          46.000  
  24278315.740      -32903.1162       3464.437          35.000  
  20954916.345       17109.7572      -1432.491          46.000  
  19700002.398       -2585.7332        280.070          46.000  
 16 10 14 20 49 33.0000000  0 10G29G24G18G20G 4G 5G21G10G13G15
  22269661.225       33177.7092      -2781.130          48.000  
  23430847.591      -45250.1262       3922.677          42.000  
  21560395.589      -27934.3912       2442.169          45.000  
  19762187.471        3793.6042       -270.031          45.000  
  22689743.789       28539.0112      -2425.632          41.000  
  23523099.371       27790.3732      -2319.201          40.000  
  20788055.356      -23068.5692       2060.698          46.000  
  24278184.026      -33596.1182       3464.108          35.000  
  20954970.632       17396.3312      -1432.757          46.000  
  19699992.242       -2641.6332        279.159          46.000  
 16 10 14 20 49 33.2000000  0 10G29G24G18G20G 4G 5G21G10G13G15
  22269767.060       33733.9782      -2781.567          48.000  
  23430698.287      -46034.6572       3922.279          42.000  
  21560302.684      -28422.8252       2442.076          45.000  
  19762197.836        3847.6382       -270.485          45.000  
  22689836.135       29024.1132      -2425.753          41.000  
  23523187.285       28254.3372      -2320.125          40.000  
  20787976.970      -23480.7032       2060.604          46.000  
  24278052.155      -34289.0762       3465.215          35.000  
  20955025.164       17682.9732      -1433.425          46.000  
  19699981.336       -2697.4592        278.754          46.000  
 16 10 14 20 49 33.4000000  0 10G29G24G18G20G 4G 5G21G10G13G15
  22269873.053       34290.3572      -2782.251          48.000  
  23430548.965      -46819.0632       3921.714          42.000  
  21560209.814      -28911.1532       2441.070          45.000  
  19762208.062        3901.8062       -270.996          45.000  
  22689928.761       29509.3992      -2425.992          41.000  
  23523275.723       28718.4192      -2320.673          40.000  
  20787898.758      -23892.7092       2059.867          46.000  
  24277920.231      -34981.9062       3464.874          35.000  
  20955079.853       17969.7532      -1434.419          46.000  
  19699970.971       -2753.1512        278.557          46.000  
 16 10 14 20 49 33.6000000  0 10G29G24G18G20G 4G 5G21G10G13G15
  22269979.045       34846.7932      -2782.501          48.000  
  23430399.696      -47603.4442       3921.404          42.000  
  21560116.961      -29399.4262       2441.386          45.000  
  19762218.654        3956.0212       -271.267          45.000  
  22690020.741       29994.6822      -2426.021          41.000  
  23523363.951       29182.5602      -2320.174          40.000  
  20787820.546      -24304.6722       2059.289          46.000  
  24277788.290      -35674.6882       3463.534          35.000  
  20955134.455       18256.5752      -1434.411          46.000  
  19699960.117       -2808.7882        278.207          46.000  
 16 10 14 20 49 33.8000000  0 10G29G24G18G20G 4G 5G21G10G13G15
  22270084.741       35403.2742      -2782.479          48.000  
  23430250.654      -48387.7602       3921.356          42.000  
  21560024.108      -29887.6462       2440.844          45.000  
  19762228.950        4010.2952       -271.306          45.000  
  22690113.332       30480.0232      -2426.127          41.000  
  23523452.249       29646.7132      -2320.562          40.000  
  20787742.264      -24716.5742       2059.086          46.000  
  24277656.401      -36367.4712       3464.014          35.000  
  20955189.022       18543.4702      -1434.187          46.000  
  19699949.698       -2864.3562        277.874          46.000  
 16 10 14 20 49 34.0000000  0 10G29G24G18G20G 4G 5G21G10G13G15
  22270190.803       35959.8272      -2783.135          48.000  
  23430101.297      -49172.0382       3920.917          42.000  
  21559931.238      -30375.8262       2440.942          45.000  
  19762239.385        4064.6382       -272.211          45.000  
  22690205.574       30965.4182      -2427.472          41.000  
  23523540.652       30110.9432      -2320.843          40.000  
  20787663.773      -25128.4032       2058.953          46.000  
  24277524.565      -37060.1912       3462.422          35.000  
  20955243.553       18830.4352      -1434.846          46.000  
  19699939.106       -2919.8392        277.354          46.000  
 16 10 14 20 49 34.2000000  0 10G29G24G18G20G 4G 5G21G10G13G15
  22270296.464       36516.4442      -2783.179          48.000  
  23429952.203      -49956.2382       3920.747          42.000  
  21559838.386      -30863.9162       2440.899          45.000  
  19762249.593        4119.0502       -272.280          45.000  
  22690298.042       31450.9122      -2427.832          41.000  
  23523628.863       30575.2262      -2320.750          40.000  
  20787585.282      -25540.1612       2059.172          46.000  
  24277392.815      -37752.8072       3463.524          35.000  
  20955298.190       19117.4822      -1435.301          46.000  
  19699928.409       -2975.2382        276.945          46.000  
 16 10 14 20 49 34.4000000  0 10G29G24G18G20G 4G 5G21G10G13G15
  22270402.754       37073.1592      -2784.053          48.000  
  23429803.160      -50740.3532       3920.518          42.000  
  21559745.655      -31351.9232       2440.148          45.000  
  19762260.081        4173.5622       -272.922          45.000  
  22690390.197       31936.4912      -2428.707          41.000  
  23523717.248       31039.5992      -2321.566          40.000  
  20787507.035      -25951.8142       2058.021          46.000  
  24277260.717      -38445.3572       3460.176          35.000  
  20955352.739       19404.6432      -1435.808          46.000  
  19699918.061       -3030.5272        276.273          46.000  
 16 10 14 20 49 34.6000000  0 10G29G24G18G20G 4G 5G21G10G13G15
  22270508.694       37629.9402      -2784.125          48.000  
  23429653.734      -51524.4062       3920.087          42.000  
  21559652.872      -31839.8652       2439.770          44.000  
  19762270.464        4228.1512       -273.187          45.000  
  22690482.700       32422.1562      -2428.638          41.000  
  23523805.721       31504.0252      -2322.871          40.000  
  20787428.928      -26363.4012       2057.373          46.000  
  24277129.125      -39137.8422       3461.345          35.000  
  20955407.236       19691.8762      -1436.605          46.000  
  19699907.504       -3085.7332        276.057          46.000  
 16 10 14 20 49 34.8000000  0 10G29G24G18G20G 4G 5G21G10G13G15
  22270614.599       38186.8132      -2784.143          48.000  
  23429504.377      -52308.3652       3920.249          42.000  
  21559559.880      -32327.7222       2439.333          44.000  
  19762280.724        4282.8352       -273.205          45.000  
  22690574.820       32907.8992      -2428.618          41.000  
  23523894.071       31968.5562      -2322.226          40.000  
  20787350.803      -26774.8922       2057.653          46.000  
  24276997.323      -39830.2252       3461.385          35.000  
  20955462.012       19979.2192      -1436.862          46.000  
  19699896.928       -3140.8292        275.022          46.000  
 16 10 14 20 49 35.0000000  0 10G29G24G18G20G 4G 5G21G10G13G15
  22270720.504       38743.7232      -2784.875          48.000  
  23429354.846      -53092.3312       3919.047          42.000  
  21559466.975      -32815.5462       2438.612          44.000  
  19762291.020        4337.5462       -273.980          45.000  
  22690667.271       33393.6772      -2428.410          41.000  
  23523982.421       32433.0812      -2323.788          40.000  
  20787272.329      -27186.3402       2056.611          46.000  
  24276865.714      -40522.6112       3462.399          35.000  
  20955516.876       20266.5902      -1437.504          46.000  
  19699886.354       -3195.8872        274.921          46.000  
 16 10 14 20 49 35.2000000  0 10G29G24G18G20G 4G 5G21G10G13G15
  22270826.689       39300.7502      -2785.326          48.000  
  23429205.786      -53876.1402       3918.943          42.000  
  21559374.105      -33303.2612       2438.365          44.000  
  19762301.560        4392.3802       -274.542          45.000  
  22690759.565       33879.5652      -2428.790          41.000  
  23524070.946       32897.7362      -2323.199          40.000  
  20787193.960      -27597.6642       2056.730          46.000  
  24276733.999      -41214.8962       3462.153          35.000  
  20955571.582       20554.1042      -1437.912          46.000  
  19699875.883       -3250.8032        274.350          46.000  
 16 10 14 20 49 35.4000000  0 10G29G24G18G20G 4G 5G21G10G13G15
  22270932.455       39857.8012      -2785.450          48.000  
  23429056.622      -54659.9512       3918.997          42.000  
  21559280.973      -33790.9512       2438.324          44.000  
  19762312.379        4447.2412       -274.730          45.000  
  22690851.929       34365.4772      -2429.878          41.000  
  23524159.681       33362.3822      -2323.456          40.000  
  20787115.731      -28008.9692       2056.156          46.000  
  24276602.198      -41907.1352       3461.643          35.000  
  20955626.393       20841.6322      -1438.509          46.000  
  19699865.256       -3305.6842        273.811          46.000  
 16 10 14 20 49 35.6000000  0 10G29G24G18G20G 4G 5G21G10G13G15
  22271038.674       40414.9142      -2785.973          48.000  
  23428907.632      -55443.6842       3918.325          42.000  
  21559188.260      -34278.5602       2438.127          44.000  
  19762322.639        4502.1922       -274.225          45.000  
  22690944.433       34851.4732      -2430.258          41.000  
  23524248.171       33827.1372      -2324.539          40.000  
  20787037.449      -28420.1882       2055.854          46.000  
  24276470.344      -42599.3082       3461.034          35.000  
  20955680.960       21129.2852      -1437.813          46.000  
  19699854.978       -3360.4632        273.926          46.000  
 16 10 14 20 49 35.8000000  0 10G29G24G18G20G 4G 5G21G10G13G15
  22271144.509       40972.1212      -2786.177          48.000  
  23428758.362      -56227.3562       3918.137          42.000  
  21559095.669      -34766.1112       2437.423          44.000  
  19762333.074        4557.2132       -274.984          45.000  
  22691037.041       35337.5542      -2430.813          41.000  
  23524336.590       34291.9392      -2324.216          40.000  
  20786958.748      -28831.3312       2055.567          46.000  
  24276338.856      -43291.4182       3460.538          35.000  
  20955735.561       21416.9802      -1438.505          46.000  
  19699844.682       -3415.1712        273.079          46.000  
 16 10 14 20 49 36.0000000  0 10G29G24G18G20G 4G 5G21G10G13G15
  22271250.519       41529.3722      -2786.316          48.000  
  23428609.373      -57010.9712       3918.030          42.000  
  21559003.113      -35253.6022       2437.597          44.000  
  19762343.684        4612.3002       -275.309          45.000  
  22691129.492       35823.6892      -2430.964          41.000  
  23524424.976       34756.7932      -2325.026          40.000  
  20786880.484      -29242.4072       2055.393          46.000  
  24276207.317      -43983.5082       3460.908          35.000  
  20955790.338       21704.7902      -1439.017          46.000  
  19699834.474       -3469.7782        272.832          46.000  
 16 10 14 20 49 36.2000000  0 10G29G24G18G20G 4G 5G21G10G13G15
  22271356.564       42086.7112      -2786.724          48.000  
  23428459.894      -57794.5232       3917.574          42.000  
  21558910.382      -35741.0112       2436.925          44.000  
  19762354.154        4667.4702       -276.078          45.000  
  22691221.996       36309.9202      -2431.150          41.000  
  23524513.483       35221.7202      -2324.344          40.000  
  20786802.028      -29653.3982       2054.771          46.000  
  24276075.724      -44675.4822       3458.594          35.000  
  20955845.376       21992.6572      -1439.679          46.000  
  19699823.951       -3524.3072        272.403          46.000  
 16 10 14 20 49 36.4000000  0 10G29G24G18G20G 4G 5G21G10G13G15
  22271462.592       42644.1232      -2787.249          48.000  
  23428310.834      -58577.9802       3917.319          42.000  
  21558817.617      -36228.3632       2436.367          44.000  
  19762364.485        4722.7142       -276.548          45.000  
  22691314.569       36796.1942      -2431.425          41.000  
  23524602.043       35686.7232      -2325.093          40.000  
  20786723.833      -30064.3122       2054.626          46.000  
  24275943.975      -45367.4112       3459.368          35.000  
  20955899.855       22280.6192      -1440.042          46.000  
  19699813.708       -3578.7522        271.930          46.000  
 16 10 14 20 49 36.6000000  0 10G29G24G18G20G 4G 5G21G10G13G15
  22271568.585       43201.5862      -2787.222          48.000  
  23428161.530      -59361.4372       3917.108          42.000  
  21558725.009      -36715.6512       2436.754          44.000  
  19762375.025        4778.0182       -276.326          45.000  
  22691407.073       37282.5442      -2431.659          41.000  
  23524690.498       36151.7542      -2324.882          40.000  
  20786645.848      -30475.1732       2054.353          46.000  
  24275812.401      -46059.3222       3460.169          35.000  
  20955954.736       22568.6292      -1440.411          46.000  
  19699803.325       -3633.1042        272.261          46.000  
 16 10 14 20 49 36.8000000  0 10G29G24G18G20G 4G 5G21G10G13G15
  22271674.699       43759.0852      -2787.716          48.000  
  23428012.191      -60144.8322       3916.770          42.000  
  21558631.964      -37202.9242       2435.503          44.000  
  19762385.634        4833.3592       -277.153          45.000  
  22691499.593       37768.8982      -2433.166          41.000  
  23524779.058       36616.8242      -2325.865          40.000  
  20786567.584      -30885.9872       2053.963          46.000  
  24275680.878      -46751.1532       3458.005          34.000  
  20956009.320       22856.7012      -1440.561          46.000  
  19699792.994       -3687.4262        270.997          46.000  
 16 10 14 20 49 37.0000000  0 10G29G24G18G20G 4G 5G21G10G13G15
  22271780.814       44316.6492      -2787.886          48.000  
  23427863.253      -60928.1652       3915.928          42.000  
  21558539.285      -37690.1262       2436.198          44.000  
  19762395.947        4888.7822       -276.859          45.000  
  22691592.044       38255.3712      -2432.368          41.000  
  23524867.652       37081.9642      -2325.941          40.000  
  20786489.686      -31296.7292       2053.586          46.000  
  24275549.129      -47442.9472       3459.260          34.000  
  20956064.253       23144.8542      -1440.635          46.000  
  19699782.489       -3741.6632        271.078          46.000  
 16 10 14 20 49 37.2000000  0 10G29G24G18G20G 4G 5G21G10G13G15
  22271886.894       44874.2752      -2788.461          48.000  
  23427714.455      -61711.4472       3916.923          42.000  
  21558446.642      -38177.2732       2435.137          44.000  
  19762406.260        4944.2412       -277.293          45.000  
  22691684.705       38741.8992      -2432.649          41.000  
  23524956.003       37547.1202      -2326.361          40.000  
  20786411.579      -31707.4052       2053.498          46.000  
  24275417.502      -48134.6452       3460.381          34.000  
  20956119.152       23433.0792      -1441.143          46.000  
  19699772.333       -3795.8322        270.918          46.000  
 16 10 14 20 49 37.4000000  0 10G29G24G18G20G 4G 5G21G10G13G15
  22271993.026       45431.9822      -2788.531          48.000  
  23427565.709      -62494.6702       3915.804          42.000  
  21558353.999      -38664.3382       2435.169          44.000  
  19762416.992        4999.8052       -277.663          45.000  
  22691777.313       39228.4852      -2432.904          41.000  
  23525044.615       38012.3612      -2325.932          40.000  
  20786333.297      -32118.0002       2052.844          46.000  
  24275285.875      -48826.3092       3459.764          34.000  
  20956174.155       23721.3942      -1441.373          46.000  
  19699762.666       -3849.8982        270.171          46.000  
 16 10 14 20 49 37.6000000  0 10G29G24G18G20G 4G 5G21G10G13G15
  22272098.966       45989.7452      -2788.862          48.000  
  23427416.772      -63277.8222       3916.031          42.000  
  21558261.583      -39151.3512       2434.877          45.000  
  19762427.706        5055.4202       -278.485          45.000  
  22691869.992       39715.1482      -2432.855          41.000  
  23525133.105       38477.6642      -2327.470          40.000  
  20786255.539      -32528.5322       2052.560          46.000  
  24275154.579      -49517.9422       3458.716          35.000  
  20956229.228       24009.7662      -1442.235          46.000  
  19699752.318       -3903.8982        269.749          46.000  
 16 10 14 20 49 37.8000000  0 10G29G24G18G20G 4G 5G21G10G13G15
  22272205.045       46547.5502      -2788.707          48.000  
  23427267.712      -64060.9502       3915.640          42.000  
  21558168.922      -39638.3222       2434.747          45.000  
  19762438.054        5111.0822       -278.443          45.000  
  22691963.088       40201.8392      -2433.677          41.000  
  23525221.682       38943.0142      -2326.046          40.000  
  20786177.658      -32939.0272       2052.355          46.000  
  24275022.812      -50209.5562       3457.615          35.000  
  20956284.126       24298.1962      -1442.249          46.000  
  19699742.161       -3957.8362        269.355          46.000  
 16 10 14 20 49 38.0000000  0 10G29G24G18G20G 4G 5G21G10G13G15
  22272311.422       47105.3812      -2789.038          48.000  
  23427118.530      -64844.0502       3915.106          42.000  
  21558076.296      -40125.2632       2434.536          45.000  
  19762448.541        5166.7942       -278.567          45.000  
  22692055.766       40688.5852      -2434.099          41.000  
  23525310.242       39408.3412      -2326.483          40.000  
  20786099.638      -33349.4732       2052.110          46.000  
  24274891.465      -50901.0762       3456.547          35.000  
  20956338.867       24586.6832      -1442.342          46.000  
  19699731.935       -4011.7132        269.474          46.000  
 16 10 14 20 49 38.2000000  0 10G29G24G18G20G 4G 5G21G10G13G15
  22272417.589       47663.2732      -2789.863          48.000  
  23426969.400      -65627.1152       3914.360          42.000  
  21557983.548      -40612.1532       2434.013          45.000  
  19762459.256        5222.5402       -279.291          45.000  
  22692148.409       41175.3582      -2434.093          41.000  
  23525398.697       39873.7742      -2327.507          40.000  
  20786021.549      -33759.8682       2051.296          46.000  
  24274760.099      -51592.5782       3458.646          35.000  
  20956394.132       24875.2132      -1443.477          46.000  
  19699721.430       -4065.5312        268.362          46.000  
 16 10 14 20 49 38.4000000  0 10G29G24G18G20G 4G 5G21G10G13G15
  22272523.809       48221.2522      -2790.244          48.000  
  23426820.498      -66410.0762       3914.105          42.000  
  21557890.835      -41098.9612       2433.299          44.000  
  19762469.866        5278.4042       -279.727          45.000  
  22692241.157       41662.2552      -2434.913          41.000  
  23525487.431       40339.2262      -2328.003          40.000  
  20785943.546      -34170.1572       2050.632          46.000  
  24274628.490      -52283.9752       3457.602          35.000  
  20956448.838       25163.8622      -1443.849          46.000  
  19699711.344       -4119.2402        268.021          46.000  
 16 10 14 20 49 38.6000000  0 10G29G24G18G20G 4G 5G21G10G13G15
  22272629.923       48779.3282      -2790.480          48.000  
  23426671.525      -67192.9432       3914.446          42.000  
  21557798.331      -41585.6772       2433.665          44.000  
  19762480.737        5334.3612       -279.774          45.000  
  22692333.748       42149.1832      -2435.448          41.000  
  23525575.852       40804.8142      -2327.402          40.000  
  20785865.561      -34580.3512       2050.888          46.000  
  24274496.723      -52975.3122       3455.926          34.000  
  20956503.527       25452.6252      -1443.686          46.000  
  19699701.083       -4172.8362        267.987          46.000  
 16 10 14 20 49 38.8000000  0 10G29G24G18G20G 4G 5G21G10G13G15
  22272736.457       49337.4452      -2791.252          48.000  
  23426522.622      -67975.7842       3913.369          41.000  
  21557705.583      -42072.3622       2433.079          45.000  
  19762491.521        5390.3522       -280.218          45.000  
  22692426.426       42636.2432      -2435.977          41.000  
  23525664.673       41270.4272      -2327.712          40.000  
  20785787.506      -34990.5072       2050.380          46.000  
  24274365.183      -53666.6392       3456.327          34.000  
  20956558.513       25741.4032      -1444.356          46.000  
  19699691.119       -4226.3902        267.589          46.000  
 16 10 14 20 49 39.0000000  0 10G29G24G18G20G 4G 5G21G10G13G15
  22272842.519       49895.6292      -2791.089          48.000  
  23426373.719      -68758.5642       3913.724          41.000  
  21557613.149      -42558.9592       2433.111          45.000  
  19762502.131        5446.4212       -280.408          45.000  
  22692518.790       43123.2962      -2436.364          41.000  
  23525753.285       41736.0882      -2329.302          40.000  
  20785709.137      -35400.5822       2049.960          46.000  
  24274233.451      -54357.9022       3455.648          34.000  
  20956613.952       26030.2812      -1444.708          46.000  
  19699680.666       -4279.8562        266.488          46.000  
 16 10 14 20 49 39.2000000  0 10G29G24G18G20G 4G 5G21G10G13G15
  22272949.157       50453.8792      -2791.401          48.000  
  23426224.625      -69541.3062       3914.100          41.000  
  21557520.523      -43045.5152       2432.854          45.000  
  19762512.828        5502.5422       -281.034          45.000  
  22692611.328       43610.4742      -2435.508          41.000  
  23525841.740       42201.8102      -2328.448          40.000  
  20785631.047      -35810.5852       2050.303          46.000  
  24274102.086      -55049.0752       3455.079          35.000  
  20956668.554       26319.2302      -1444.904          46.000  
  19699670.493       -4333.2282        266.843          46.000  
 16 10 14 20 49 39.4000000  0 10G29G24G18G20G 4G 5G21G10G13G15
  22273055.097       51012.1652      -2791.602          48.000  
  23426075.966      -70323.9922       3913.830          41.000  
  21557427.933      -43532.0412       2432.307          45.000  
  19762523.350        5558.7252       -281.184          45.000  
  22692704.181       44097.6532      -2436.165          41.000  
  23525930.108       42667.5572      -2329.424          40.000  
  20785553.027      -36220.5602       2049.607          46.000  
  24273970.477      -55740.2042       3456.161          35.000  
  20956723.539       26608.2372      -1445.376          46.000  
  19699660.319       -4386.5572        266.623          46.000  
 16 10 14 20 49 39.6000000  0 10G29G24G18G20G 4G 5G21G10G13G15
  22273160.968       51570.4962      -2791.822          48.000  
  23425926.714      -71106.6712       3912.883          41.000  
  21557335.342      -44018.5242       2432.636          45.000  
  19762534.483        5614.9422       -281.341          45.000  
  22692796.859       44584.8712      -2436.533          41.000  
  23526018.860       43133.3552      -2328.040          40.000  
  20785475.112      -36630.4822       2049.622          46.000  
  24273839.111      -56431.3642       3455.033          35.000  
  20956778.612       26897.3052      -1445.197          46.000  
  19699650.355       -4439.8412        266.066          46.000  
 16 10 14 20 49 39.8000000  0 10G29G24G18G20G 4G 5G21G10G13G15
  22273267.135       52128.8592      -2792.310          48.000  
  23425777.811      -71889.2972       3912.260          41.000  
  21557243.117      -44504.9672       2431.561          45.000  
  19762544.918        5671.2012       -281.882          45.000  
  22692889.589       45072.1342      -2437.812          41.000  
  23526107.384       43599.1692      -2328.963          40.000  
  20785397.004      -37040.3612       2048.656          46.000  
  24273707.379      -57122.4542       3454.991          35.000  
  20956833.440       27186.3882      -1446.142          46.000  
  19699640.303       -4493.0542        265.888          46.000  
 16 10 14 20 49 40.0000000  0 10G29G24G18G20G 4G 5G21G10G13G15
  22273373.406       52687.3242      -2792.472          47.000  
  23425628.978      -72671.8252       3912.408          41.000  
  21557150.439      -44991.2982       2431.889          45.000  
  19762555.476        5727.5782       -281.841          45.000  
  22692982.494       45559.5212      -2436.827          41.000  
  23526196.101       44065.0822      -2328.534          40.000  
  20785318.915      -37450.1212       2049.074          46.000  
  24273575.927      -57813.4452       3455.172          35.000  
  20956888.443       27475.6142      -1446.198          46.000  
  19699630.357       -4546.1622        265.309          46.000  
 16 10 14 20 49 40.2000000  0 10G29G24G18G20G 4G 5G21G10G13G15
  22273479.713       53245.8242      -2792.527          48.000  
  23425480.128      -73454.3342       3912.676          41.000  
  21557058.005      -45477.6192       2431.585          45.000  
  19762566.033        5783.9812       -282.281          45.000  
  22693075.329       46046.9292      -2437.368          41.000  
  23526284.487       44531.0192      -2329.297          40.000  
  20785240.860      -37859.8772       2048.639          46.000  
  24273444.666      -58504.4362       3456.920          35.000  
  20956943.621       27764.8642      -1446.640          46.000  
  19699620.480       -4599.2172        265.610          46.000  
 16 10 14 20 49 40.4000000  0 10G29G24G18G20G 4G 5G21G10G13G15
  22273586.229       53804.3392      -2792.632          47.000  
  23425331.225      -74236.8192       3912.759          42.000  
  21556965.484      -45963.9302       2431.498          44.000  
  19762577.184        5840.4082       -281.872          45.000  
  22693168.164       46534.3572      -2437.413          41.000  
  23526373.151       44996.9472      -2329.870          40.000  
  20785162.980      -38269.5842       2048.398          46.000  
  24273313.266      -59195.3822       3454.639          35.000  
  20956998.868       28054.1572      -1446.496          46.000  
  19699610.341       -4652.2342        264.590          46.000  
 16 10 14 20 49 40.6000000  0 10G29G24G18G20G 4G 5G21G10G13G15
  22273692.763       54362.9192      -2793.433          47.000  
  23425182.532      -75019.2552       3911.890          42.000  
  21556873.015      -46450.1532       2430.902          44.000  
  19762587.828        5896.9112       -282.593          45.000  
  22693260.877       47021.8712      -2437.618          41.000  
  23526462.095       45462.9612      -2329.194          40.000  
  20785084.977      -38679.2252       2048.141          46.000  
  24273181.569      -59886.3262       3453.036          35.000  
  20957054.133       28343.5302      -1446.917          46.000  
  19699600.185       -4705.1692        264.856          46.000  
 16 10 14 20 49 40.8000000  0 10G29G24G18G20G 4G 5G21G10G13G15
  22273799.244       54921.5652      -2793.022          47.000  
  23425033.908      -75801.6352       3912.213          41.000  
  21556780.110      -46936.3592       2430.917          44.000  
  19762598.525        5953.4562       -283.094          45.000  
  22693353.573       47509.4232      -2438.237          41.000  
  23526551.021       45929.0082      -2329.752          40.000  
  20785007.027      -39088.8042       2048.134          46.000  
  24273049.960      -60577.1382       3455.502          35.000  
  20957109.241       28632.9662      -1447.303          46.000  
  19699590.134       -4758.0372        263.801          46.000  
 16 10 14 20 49 41.0000000  0 10G29G24G18G20G 4G 5G21G10G13G15
  22273905.638       55480.2802      -2793.663          47.000  
  23424885.110      -76583.9332       3911.631          41.000  
  21556687.397      -47422.4482       2430.640          44.000  
  19762609.361        6010.0972       -283.692          45.000  
  22693446.757       47997.0622      -2438.490          41.000  
  23526639.825       46395.1272      -2331.020          40.000  
  20784928.989      -39498.2882       2047.429          46.000  
  24272918.385      -61267.9402       3455.009          35.000  
  20957164.244       28922.4882      -1447.957          46.000  
  19699579.838       -4810.8032        263.375          46.000  
 16 10 14 20 49 41.2000000  0 10G29G24G18G20G 4G 5G21G10G13G15
  22274011.822       56039.0292      -2794.101          47.000  
  23424736.452      -77366.2362       3910.377          41.000  
  21556595.033      -47908.5212       2430.367          44.000  
  19762619.989        6066.7752       -283.266          45.000  
  22693539.714       48484.7292      -2438.625          41.000  
  23526728.507       46861.2682      -2330.699          40.000  
  20784851.266      -39907.7572       2047.032          46.000  
  24272787.159      -61958.6732       3455.236          34.000  
  20957219.177       29212.0432      -1448.544          46.000  
  19699569.630       -4863.5342        263.154          46.000  
 16 10 14 20 49 41.4000000  0 10G29G24G18G20G 4G 5G21G10G13G15
  22274118.216       56597.8732      -2794.219          47.000  
  23424587.793      -78148.4192       3911.060          41.000  
  21556502.459      -48394.5232       2429.858          44.000  
  19762630.843        6123.5442       -283.688          45.000  
  22693632.427       48972.5052      -2438.719          41.000  
  23526817.364       47327.5112      -2331.293          40.000  
  20784773.386      -40317.1072       2046.692          46.000  
  24272655.375      -62649.3772       3454.119          34.000  
  20957274.407       29501.7222      -1448.495          46.000  
  19699559.561       -4916.1372        263.188          46.000  
 16 10 14 20 49 41.6000000  0 10G29G24G18G20G 4G 5G21G10G13G15
  22274224.383       57156.7242      -2794.629          47.000  
  23424438.629      -78930.6222       3909.915          41.000  
  21556409.956      -48880.5022       2429.871          44.000  
  19762641.627        6180.3242       -284.716          45.000  
  22693725.419       49460.2762      -2439.096          41.000  
  23526906.115       47793.7442      -2331.698          40.000  
  20784695.784      -40726.4622       2046.522          46.000  
  24272524.027      -63339.9912       3455.434          34.000  
  20957329.183       29791.4152      -1449.001          46.000  
  19699549.632       -4968.7362        262.916          46.000  
 16 10 14 20 49 41.8000000  0 10G29G24G18G20G 4G 5G21G10G13G15
  22274330.324       57715.6392      -2794.698          47.000  
  23424289.988      -79712.7542       3910.794          41.000  
  21556317.609      -49366.4362       2429.412          44.000  
  19762652.446        6237.1632       -284.431          45.000  
  22693818.080       49948.1122      -2439.538          41.000  
  23526994.728       48260.0202      -2332.093          40.000  
  20784618.044      -41135.7352       2046.476          46.000  
  24272392.697      -64030.6252       3452.626          34.000  
  20957384.047       30081.1752      -1449.053          46.000  
  19699539.685       -5021.2462        262.467          46.000  
 16 10 14 20 49 42.0000000  0 10G29G24G18G20G 4G 5G21G10G13G15
  22274436.770       58274.5952      -2794.791          47.000  
  23424141.120      -80494.8632       3910.346          41.000  
  21556225.402      -49852.3232       2429.806          44.000  
  19762662.863        6294.0622       -284.350          45.000  
  22693910.740       50435.9902      -2439.408          41.000  
  23527083.392       48726.3392      -2332.823          40.000  
  20784540.058      -41544.9802       2046.421          46.000  
  24272260.930      -64721.2142       3451.634          35.000  
  20957439.067       30370.9832      -1448.784          46.000  
  19699529.476       -5073.7122        262.205          46.000  
 16 10 14 20 49 42.2000000  0 10G29G24G18G20G 4G 5G21G10G13G15
  22274543.059       58833.099       -2795.211          47.000  
  23423992.374      -81277.421        3909.995          41.000  
  21556132.863      -50338.145        2429.081          44.000  
  19762673.770        6351.009        -284.994          45.000  
  22694003.802       50923.431       -2439.882          41.000  
  23527172.266       49192.730       -2332.092          39.000  
  20784462.073      -41954.159        2045.463          46.000  
  24272129.530      -65412.276        3452.464          35.000  
  20957494.366       30660.857       -1450.358          46.000  
  19699519.687       -5126.595         261.334          46.000  
 16 10 14 20 49 42.4000000  0 10G29G24G18G20G 4G 5G21G10G13G15
  22274649.680       59392.172       -2795.607          47.000  
  23423843.384      -82059.430        3910.362          41.000  
  21556040.587      -50823.918        2428.622          44.000  
  19762684.903        6408.031        -285.124          45.000  
  22694096.393       51411.424       -2440.327          41.000  
  23527260.948       49659.133       -2332.774          39.000  
  20784383.896      -42363.270        2045.381          46.000  
  24271998.095      -66102.739        3451.822          35.000  
  20957549.753       30950.827       -1450.093          46.000  
  19699509.792       -5178.912         261.259          46.000  
 16 10 14 20 49 42.6000000  0 10G29G24G18G20G 4G 5G21G10G13G15
  22274755.847       59951.297       -2795.278          47.000  
  23423694.516      -82841.376        3910.462          41.000  
  21555947.996      -51309.654        2428.386          44.000  
  19762695.548        6465.104        -285.177          45.000  
  22694189.054       51899.502       -2439.495          41.000  
  23527349.612       50125.586       -2332.977          39.000  
  20784306.016      -42772.325        2045.213          46.000  
  24271866.747      -66793.160        3453.184          35.000  
  20957605.123       31240.840       -1450.135          46.000  
  19699499.968       -5231.151         261.482          46.000  
 16 10 14 20 49 42.8000000  0 10G29G24G18G20G 4G 5G21G10G13G15
  22274862.154       60510.494       -2796.136          47.000  
  23423545.701      -83623.264        3909.571          41.000  
  21555855.545      -51795.310        2428.625          44.000  
  19762706.611        6522.246        -285.433          45.000  
  22694282.185       52387.616       -2440.747          41.000  
  23527438.277       50592.153       -2332.384          39.000  
  20784228.415      -43181.303        2044.816          46.000  
  24271735.661      -67483.498        3451.672          35.000  
  20957660.405       31530.943       -1450.496          46.000  
  19699489.952       -5283.303         260.825          46.000  
 16 10 14 20 49 43.0000000  0 10G29G24G18G20G 4G 5G21G10G13G15
  22274968.599       61069.701       -2796.074          47.000  
  23423397.129      -84405.157        3909.587          41.000  
  21555763.041      -52280.961        2427.994          44.000  
  19762717.569        6579.413        -285.835          45.000  
  22694375.125       52875.762       -2441.433          41.000  
  23527527.011       51058.681       -2332.778          39.000  
  20784150.429      -43590.252        2044.331          46.000  
  24271604.103      -68173.900        3450.741          35.000  
  20957715.268       31821.065       -1450.962          46.000  
  19699479.970       -5335.426         260.850          46.000  
 16 10 14 20 49 43.2000000  0 10G29G24G18G20G 4G 5G21G10G13G15
  22275075.342       61628.952       -2796.250          47.000  
  23423248.104      -85186.978        3908.990          41.000  
  21555670.589      -52766.563        2427.794          44.000  
  19762728.231        6636.629        -286.403          45.000  
  22694468.204       53363.959       -2441.231          41.000  
  23527615.745       51525.272       -2332.548          39.000  
  20784072.532      -43999.149        2044.527          46.000  
  24271472.825      -68864.184        3452.308          34.000  
  20957770.760       32111.255       -1450.937          46.000  
  19699470.232       -5387.489         260.716          46.000  
 16 10 14 20 49 43.4000000  0 10G29G24G18G20G 4G 5G21G10G13G15
  22275181.667       62188.216       -2796.462          47.000  
  23423099.079      -85968.824        3909.242          41.000  
  21555577.998      -53252.164        2427.958          44.000  
  19762738.841        6693.857        -286.448          45.000  
  22694561.039       53852.149       -2441.253          41.000  
  23527704.671       51991.852       -2332.549          39.000  
  20783994.529      -44408.051        2044.745          46.000  
  24271341.163      -69554.528        3451.753          34.000  
  20957825.885       32401.449       -1451.008          46.000  
  19699460.321       -5439.538         260.233          46.000  
 16 10 14 20 49 43.6000000  0 10G29G24G18G20G 4G 5G21G10G13G15
  22275288.392       62747.522       -2797.088          47.000  
  23422950.473      -86750.622        3908.719          41.000  
  21555485.495      -53737.712        2427.857          44.000  
  19762749.765        6751.132        -286.863          45.000  
  22694653.962       54340.408       -2441.827          41.000  
  23527793.231       52458.457       -2333.050          39.000  
  20783916.980      -44816.891        2044.055          46.000  
  24271209.484      -70244.796        3451.333          34.000  
  20957880.784       32691.700       -1451.697          46.000  
  19699450.234       -5491.515         259.825          46.000  
 16 10 14 20 49 43.8000000  0 10G29G24G18G20G 4G 5G21G10G13G15
  22275395.310       63306.922       -2796.906          47.000  
  23422801.466      -87532.348        3908.858          41.000  
  21555393.026      -54223.190        2427.551          44.000  
  19762760.828        6808.511        -286.278          45.000  
  22694746.954       54828.747       -2441.862          41.000  
  23527881.826       52925.133       -2334.868          39.000  
  20783838.926      -45225.640        2043.952          46.000  
  24271078.328      -70935.011        3451.456          34.000  
  20957936.153       32982.061       -1452.025          46.000  
  19699440.602       -5543.396         259.236          46.000  
 16 10 14 20 49 44.0000000  0 10G29G24G18G20G 4G 5G21G10G13G15
  22275501.860       63866.369       -2797.425          48.000  
  23422652.615      -88314.011        3908.080          41.000  
  21555300.609      -54708.615        2427.409          44.000  
  19762771.542        6865.930        -287.121          45.000  
  22694839.806       55317.142       -2442.337          41.000  
  23527970.857       53391.905       -2333.556          39.000  
  20783761.062      -45634.332        2043.338          46.000  
  24270947.189      -71625.172        3452.615          35.000  
  20957991.121       33272.483       -1452.165          46.000  
  19699430.533       -5595.189         259.116          46.000  
 16 10 14 20 49 44.2000000  0 10G29G24G18G20G 4G 5G21G10G13G15
  22275608.708       64425.909       -2798.166          47.000  
  23422503.660      -89095.600        3907.666          41.000  
  21555208.368      -55193.940        2427.044          44.000  
  19762782.501        6923.438        -288.009          45.000  
  22694932.955       55805.624       -2443.243          41.000  
  23528059.626       53858.705       -2334.078          39.000  
  20783683.828      -46042.938        2042.884          46.000  
  24270815.754      -72315.220        3449.279          35.000  
  20958046.630       33562.992       -1453.174          46.000  
  19699420.638       -5646.898         258.110          46.000  
 16 10 14 20 49 44.4000000  0 10G29G24G18G20G 4G 5G21G10G13G15
  22275714.683       64985.464       -2797.994          48.000  
  23422355.072      -89877.194        3907.836          41.000  
  21555115.794      -55679.261        2426.456          44.000  
  19762793.704        6980.978        -288.412          45.000  
