     2.10           OBSERVATION DATA    G (GPS)             RINEX VERSION / TYPE
RTKCONV 2.4.2                           20160928 180949 UTC PGM / RUN BY / DATE 
log: C:\Users\macshen\Desktop\exp_924\multipath effect\mul  COMMENT             
format: u-blox                                              COMMENT             
                                                            MARKER NAME         
                                                            MARKER NUMBER       
                                                            OBSERVER / AGENCY   
                                                            REC # / TYPE / VERS 
                                                            ANT # / TYPE        
   518023.8967 -4696366.9811  4270419.1857                  APPROX POSITION XYZ 
        0.0000        0.0000        0.0000                  ANTENNA: DELTA H/E/N
     1     1                                                WAVELENGTH FACT L1/2
     4    C1    L1    D1    S1                              # / TYPES OF OBSERV 
  2016     9    24    21    28   56.0000000     GPS         TIME OF FIRST OBS   
  2016     9    24    21    44    0.1990000     GPS         TIME OF LAST OBS    
                                                            END OF HEADER       
 16  9 24 21 28 56.0000000  0 11G18G20G21G 2G 4G 5G24G29G30G13G15
  22970920.319     -885423.0213       2951.787          28.000  
  20007250.968     -246103.145         792.783          49.000  
  22051026.018     -852490.496        2835.690          47.000  
  24394952.911      139579.843       -2473.284          36.000  
  21855558.242      361250.171       -1249.518          48.000  
  22550562.897      599353.598       -1980.699          49.000  
  25467052.409       10711.8323       3914.917          27.000  
  21310458.077      509770.9493      -1736.144          28.000  
  24874603.626      -22955.147         199.056          41.000  
  20779725.026      -87723.321         220.957          49.000  
  20393858.552     -633280.719        2042.342          49.000  
 16  9 24 21 28 56.2000000  0 11G18G20G21G 2G 4G 5G24G29G30G13G15
  22970807.243     -886013.4063       2952.045          28.000  
  20007220.710     -246261.739         792.559          49.000  
  22050918.107     -853057.640        2835.595          47.000  
  24395047.039      140074.482       -2473.328          36.000  
  21855605.707      361500.104       -1249.702          48.000  
  22550638.213      599749.757       -1981.300          49.000  
  25466898.848        9928.6463       3915.185          27.000  
  21310524.110      510118.2173      -1736.545          29.000  
  24874595.844      -22995.117         199.558          41.000  
  20779716.476      -87767.471         220.143          49.000  
  20393780.760     -633689.224        2042.076          49.000  
 16  9 24 21 28 56.4000000  0 11G18G20G21G 2G 4G 5G24G29G30G13G15
  22970694.375     -886603.7853       2951.885          28.000  
  20007190.591     -246420.281         792.721          49.000  
  22050810.195     -853624.753        2835.727          47.000  
  24395141.200      140569.117       -2472.513          35.000  
  21855653.242      361750.072       -1250.321          48.000  
  22550713.598      600145.963       -1980.895          49.000  
  25466749.788        9145.5063       3916.437          27.000  
  21310590.316      510465.5743      -1736.859          29.000  
  24874588.201      -23035.009         200.349          41.000  
  20779708.135      -87811.549         220.179          49.000  
  20393703.072     -634097.674        2041.997          49.000  
 16  9 24 21 28 56.6000000  0 11G18G20G21G 2G 4G 5G24G29G30G13G15
  22970582.310     -887194.0903       2952.150          28.000  
  20007160.507     -246578.794         792.382          49.000  
  22050702.109     -854191.838        2835.160          47.000  
  24395235.327      141063.798       -2472.915          35.000  
  21855700.742      362000.092       -1250.253          48.000  
  22550788.983      600542.180       -1981.055          49.000  
  25466594.063        8362.3753       3916.185          27.000  
  21310656.453      510812.9693      -1737.025          29.000  
  24874580.698      -23074.899         199.275          41.000  
  20779700.004      -87855.585         219.731          49.000  
  20393625.489     -634506.083        2041.684          49.000  
 16  9 24 21 28 56.8000000  0 11G18G20G21G 2G 4G 5G24G29G30G13G15
  22970470.140     -887784.4423       2951.920          28.000  
  20007130.318     -246737.313         792.460          49.000  
  22050594.162     -854758.930        2835.747          47.000  
  24395329.593      141558.468       -2473.415          35.000  
  21855748.242      362250.113       -1250.407          48.000  
  22550864.298      600938.384       -1981.063          49.000  
  25466441.443        7579.1993       3915.801          27.000  
  21310722.659      511160.3483      -1736.648          29.000  
  24874573.125      -23114.765         198.732          41.000  
  20779691.628      -87899.615         219.896          49.000  
  20393547.626     -634914.490        2041.732          49.000  
 16  9 24 21 28 57.0000000  0 11G18G20G21G 2G 4G 5G24G29G30G13G15
  22970357.691     -888374.7733       2951.114          28.000  
  20007100.339     -246895.783         791.934          49.000  
  22050486.250     -855325.987        2835.035          47.000  
  24395423.964      142053.181       -2472.929          35.000  
  21855795.671      362500.179       -1250.629          48.000  
  22550939.683      601334.630       -1981.351          49.000  
  25466289.801        6796.0183       3914.302          27.000  
  21310788.656      511507.7733      -1736.789          29.000  
  24874565.237      -23154.579         198.000          41.000  
  20779683.217      -87943.589         219.558          49.000  
  20393469.973     -635322.833        2041.478          49.000  
 16  9 24 21 28 57.2000000  0 11G18G20G21G 2G 4G 5G24G29G30G13G15
  22970245.208     -888965.0623       2951.683          28.000  
  20007070.291     -247054.256         792.174          49.000  
  22050378.234     -855893.060        2835.012          47.000  
  24395518.231      142547.864       -2473.936          35.000  
  21855843.102      362750.251       -1250.595          48.000  
  22551014.999      601730.849       -1981.608          49.000  
  25466140.672        6012.8443       3916.635          27.000  
  21310854.270      511855.2223      -1737.232          29.000  
  24874557.769      -23194.394         198.286          41.000  
  20779674.702      -87987.548         219.749          49.000  
  20393392.215     -635731.172        2041.406          49.000  
 16  9 24 21 28 57.4000000  0 11G18G20G21G 2G 4G 5G24G29G30G13G15
  22970132.444     -889555.4313       2950.826          28.000  
  20007040.171     -247212.719         792.338          49.000  
  22050270.252     -856460.113        2835.585          47.000  
  24395612.392      143042.551       -2471.885          35.000  
  21855890.706      363000.339       -1250.386          48.000  
  22551090.349      602127.095       -1981.172          49.000  
  25465981.840        5229.7233       3916.788          27.000  
  21310920.336      512202.6693      -1737.626          29.000  
  24874550.161      -23234.182         199.121          41.000  
  20779666.536      -88031.488         219.580          49.000  
  20393314.457     -636139.493        2041.413          49.000  
 16  9 24 21 28 57.6000000  0 11G18G20G21G 2G 4G 5G24G29G30G13G15
  22970019.682     -890145.7273       2951.520          28.000  
  20007009.914     -247371.179         792.014          49.000  
  22050162.410     -857027.178        2835.316          47.000  
  24395706.659      143537.281       -2472.554          35.000  
  21855938.346      363250.436       -1250.793          48.000  
  22551165.665      602523.311       -1981.227          49.000  
  25465828.977        4446.5213       3915.522          27.000  
  21310986.508      512550.1503      -1737.811          29.000  
  24874542.554      -23273.971         199.206          41.000  
  20779658.230      -88075.409         219.246          49.000  
  20393236.769     -636547.798        2040.999          49.000  
 16  9 24 21 28 57.8000000  0 11G18G20G21G 2G 4G 5G24G29G30G13G15
  22969907.163     -890736.0043       2951.906          27.000  
  20006979.620     -247529.619         792.341          49.000  
  22050054.429     -857594.233        2835.288          47.000  
  24395800.925      144031.935       -2473.431          35.000  
  21855985.880      363500.565       -1250.544          48.000  
  22551241.050      602919.549       -1981.203          49.000  
  25465679.778        3663.2833       3915.183          27.000  
  21311052.645      512897.6453      -1737.349          29.000  
  24874535.085      -23313.695         199.624          41.000  
  20779649.819      -88119.297         219.210          49.000  
  20393159.116     -636956.070        2041.206          49.000  
 16  9 24 21 28 58.0000000  0 11G18G20G21G 2G 4G 5G24G29G30G13G15
  22969795.098     -891326.3393       2950.651          27.000  
  20006949.466     -247688.056         791.627          49.000  
  22049946.482     -858161.282        2835.109          47.000  
  24395895.087      144526.639       -2473.327          35.000  
  21856033.450      363750.695       -1250.911          48.000  
  22551316.191      603315.772       -1981.410          49.000  
  25465530.474        2880.0623       3916.510          26.000  
  21311118.746      513245.1393      -1738.109          30.000  
  24874527.512      -23353.448         198.191          41.000  
  20779641.338      -88163.171         218.951          49.000  
  20393081.393     -637364.332        2040.673          49.000  
 16  9 24 21 28 58.4000000  0 11G18G20G21G 2G 4G 5G24G29G30G13G15
  22969569.920     -892506.9003       2951.524          28.000  
  20006889.158     -248004.813         791.775          49.000  
  22049730.727     -859295.307        2834.901          47.000  
  24396083.689      145516.151       -2472.785          35.000  
  21856128.623      364251.101       -1251.175          48.000  
  22551466.577      604108.321       -1981.352          49.000  
  25465221.710        1313.7263       3917.142          26.000  
  21311250.565      513940.2733      -1737.820          30.000  
  24874512.504      -23432.800         197.227          41.000  
  20779624.761      -88250.770         218.963          49.000  
  20392926.225     -638180.691        2040.893          49.000  
 16  9 24 21 28 58.6000000  0 11G18G20G21G 2G 4G 5G24G29G30G13G15
  22969457.507     -893097.1663       2951.729          28.000  
  20006859.075     -248163.199         792.166          49.000  
  22049622.746     -859862.339        2834.880          47.000  
  24396178.025      146010.838       -2472.854          35.000  
  21856176.333      364501.285       -1251.213          48.000  
  22551541.823      604504.564       -1981.247          49.000  
  25465072.197         530.4793       3916.456          26.000  
  21311316.597      514287.8503      -1737.626          30.000  
  24874504.722      -23472.488         197.427          41.000  
  20779616.525      -88294.567         218.840          50.000  
  20392848.643     -638588.883        2040.967          49.000  
 16  9 24 21 28 58.8000000  0 11G18G20G21G 2G 4G 5G24G29G30G13G15
  22969344.534     -893687.4633       2951.122          28.000  
  20006829.130     -248321.571         791.838          49.000  
  22049514.729     -860429.357        2835.187          47.000  
  24396272.257      146505.623       -2473.146          35.000  
  21856224.007      364751.506       -1251.226          48.000  
  22551617.173      604900.811       -1981.251          49.000  
  25464920.973        -252.7673       3915.227          26.000  
  21311382.559      514635.4223      -1737.834          30.000  
  24874497.009      -23512.101         197.698          40.000  
  20779608.044      -88338.330         218.757          50.000  
  20392771.024     -638997.035        2040.618          49.000  
 16  9 24 21 28 59.0000000  0 11G18G20G21G 2G 4G 5G24G29G30G13G15
  22969232.329     -894277.7383       2951.535          28.000  
  20006798.906     -248479.957         791.819          49.000  
  22049406.817     -860996.390        2834.875          47.000  
  24396366.697      147000.310       -2473.396          35.000  
  21856271.646      365001.727       -1250.907          48.000  
  22551692.419      605297.052       -1981.334          49.000  
  25464768.144       -1035.9863       3917.601          26.000  
  21311448.382      514983.0123      -1738.356          30.000  
  24874489.366      -23551.747         198.182          40.000  
  20779599.703      -88382.094         218.803          50.000  
  20392693.161     -639405.189        2040.901          49.000  
 16  9 24 21 28 59.2000000  0 11G18G20G21G 2G 4G 5G24G29G30G13G15
  22969120.369     -894868.0423       2951.562          28.000  
  20006768.788     -248638.333         791.813          49.000  
  22049298.871     -861563.421        2834.988          47.000  
  24396460.894      147495.015       -2472.673          35.000  
  21856319.146      365251.955       -1251.325          49.000  
  22551767.874      605693.282       -1981.158          49.000  
  25464615.910       -1819.2763       3917.780          26.000  
  21311513.786      515330.3883      -1738.300          30.000  
  24874481.759      -23591.385         198.849          40.000  
  20779591.432      -88425.829         218.695          50.000  
  20392615.508     -639813.314        2040.731          49.000  
 16  9 24 21 28 59.4000000  0 11G18G20G21G 2G 4G 5G24G29G30G13G15
  22969008.025     -895458.3483       2951.187          28.000  
  20006738.634     -248796.704         791.885          49.000  
  22049190.819     -862130.465        2835.292          47.000  
  24396555.335      147989.738       -2472.420          35.000  
  21856366.681      365502.195       -1251.181          48.000  
  22551843.189      606089.506       -1980.883          49.000  
  25464462.348       -2602.6193       3916.831          25.000  
  21311580.027      515678.0082      -1740.025          30.000  
  24874474.046      -23631.022         198.157          40.000  
  20779583.301      -88469.555         218.603          50.000  
  20392537.855     -640221.433        2040.600          49.000  
 16  9 24 21 28 59.6000000  0 11G18G20G21G 2G 4G 5G24G29G30G13G15
  22968895.507     -896048.6643       2951.083          28.000  
  20006708.621     -248955.066         791.938          49.000  
  22049082.873     -862697.498        2835.017          47.000  
  24396649.672      148484.440       -2472.424          35.000  
  21856414.286      365752.451       -1251.222          48.000  
  22551918.645      606485.732       -1981.160          49.000  
  25464313.498       -3385.9283       3917.240          25.000  
  21311644.908      516025.6352      -1737.358          30.000  
  24874466.578      -23670.585         199.150          38.000  
  20779575.170      -88513.252         218.496          50.000  
  20392460.237     -640629.534        2040.443          49.000  
 16  9 24 21 28 59.8000000  0 11G18G20G21G 2G 4G 5G24G29G30G13G15
  22968783.197     -896638.9963       2951.448          28.000  
  20006678.432     -249113.443         791.625          49.000  
  22048974.995     -863264.550        2835.182          47.000  
  24396744.042      148979.138       -2473.640          35.000  
  21856461.925      366002.698       -1251.521          48.000  
  22551993.925      606881.933       -1981.293          49.000  
  25464163.915       -4169.2953       3915.620          25.000  
  21311712.684      516373.2532      -1737.656          31.000  
  24874458.970      -23710.210         198.207          38.000  
  20779566.584      -88556.949         218.581          50.000  
  20392382.514     -641037.639        2040.196          49.000  
 16  9 24 21 29  0.0000000  0 11G18G20G21G 2G 4G 5G24G29G30G13G15
  22968670.294     -897229.3383       2950.925          28.000  
  20006648.417     -249271.800         791.915          49.000  
  22048867.083     -863831.602        2834.995          47.000  
  24396838.413      149473.820       -2473.831          35.000  
  21856509.634      366252.967       -1251.205          49.000  
  22552069.240      607278.140       -1980.700          49.000  
  25464016.146       -4952.6383       3917.497          25.000  
  21311776.482      516720.8692      -1738.708          31.000  
  24874451.222      -23749.807         196.247          38.000  
  20779558.173      -88600.641         218.279          50.000  
  20392304.930     -641445.720        2039.980          49.000  
 16  9 24 21 29  0.4000000  0 11G18G20G21G 2G 4G 5G24G29G30G13G15
  22968445.849     -898409.9393       2951.488          28.000  
  20006588.075     -249588.452         791.357          49.000  
  22048651.050     -864965.634        2834.763          47.000  
  24397027.050      150463.275       -2473.512          35.000  
  21856605.017      366753.593       -1251.620          48.000  
  22552219.801      608070.592       -1981.073          49.000  
  25463712.059       -6519.4083       3916.329          25.000  
  21311906.556      517416.1902      -1739.083          31.000  
  24874435.900      -23828.833         197.617          38.000  
  20779541.735      -88687.882         217.874          50.000  
  20392149.414     -642261.769        2039.901          49.000  
 16  9 24 21 29  0.6000000  0 11G18G20G21G 2G 4G 5G24G29G30G13G15
  22968333.715     -899000.2433       2950.462          28.000  
  20006558.096     -249746.722         791.151          49.000  
  22048543.208     -865532.617        2834.679          47.000  
  24397121.457      150957.999       -2473.824          35.000  
  21856652.517      367003.961       -1251.905          48.000  
  22552295.117      608466.858       -1981.677          49.000  
  25463558.952       -7302.7463       3915.330          24.000  
  21311973.007      517763.9232      -1738.555          31.000  
  24874428.328      -23868.328         196.984          38.000  
  20779533.534      -88731.436         217.559          50.000  
  20392071.866     -642669.726        2039.826          49.000  
 16  9 24 21 29  0.8000000  0 11G18G20G21G 2G 4G 5G24G29G30G13G15
  22968220.917     -899590.4743       2951.458          28.000  
  20006528.151     -249904.984         790.834          49.000  
  22048435.331     -866099.592        2835.016          47.000  
  24397215.827      151452.768       -2473.198          35.000  
  21856700.226      367254.347       -1252.217          48.000  
  22552370.292      608863.117       -1981.461          49.000  
  25463407.728       -8086.0703       3918.291          24.000  
  21312039.528      518111.6712      -1738.676          31.000  
  24874420.859      -23907.761         197.629          38.000  
  20779525.123      -88774.971         217.335          50.000  
  20391994.143     -643077.655        2039.341          49.000  
 16  9 24 21 29  1.0000000  0 11G18G20G21G 2G 4G 5G24G29G30G13G15
  22968109.026     -900180.7213       2950.999          28.000  
  20006498.032     -250063.246         791.316          49.000  
  22048327.349     -866666.573        2834.992          47.000  
  24397310.163      151947.532       -2474.472          35.000  
  21856747.900      367504.744       -1252.528          48.000  
  22552445.747      609259.377       -1981.473          49.000  
  25463256.400       -8869.3893       3916.198          24.000  
  21312105.245      518459.3972      -1740.000          31.000  
  24874413.286      -23947.219         196.883          38.000  
  20779516.957      -88818.487         217.376          50.000  
  20391916.350     -643485.580        2039.575          49.000  
 16  9 24 21 29  1.4000000  0 11G18G20G21G 2G 4G 5G24G29G30G13G15
  22967884.093     -901361.2643       2951.317          27.000  
  20006437.620     -250379.732         791.193          49.000  
  22048111.629     -867800.522        2834.639          47.000  
  24397498.940      152937.067       -2473.431          35.000  
  21856843.248      368005.601       -1252.034          48.000  
  22552596.342      610051.893       -1981.337          49.000  
  25462958.245      -10435.9483       3915.511          23.000  
  21312239.612      519154.9762      -1737.656          32.000  
  24874398.104      -24026.010         198.423          38.000  
  20779500.484      -88905.452         217.316          50.000  
  20391760.903     -644301.366        2039.524          49.000  
 16  9 24 21 29  1.6000000  0 11G18G20G21G 2G 4G 5G24G29G30G13G15
  22967771.120     -901951.5473       2951.596          27.000  
  20006407.431     -250538.007         790.966          49.000  
  22048003.822     -868367.536        2834.996          47.000  
  24397593.415      153431.807       -2472.282          34.000  
  21856890.887      368255.994       -1252.354          48.000  
  22552671.692      610448.106       -1981.363          49.000  
  25462807.964      -11219.0483       3915.511          22.000  
  21312305.050      519502.7262      -1740.600          32.000  
  24874390.566      -24065.459         197.198          36.000  
  20779491.863      -88948.953         217.026          50.000  
  20391683.250     -644709.275        2039.257          49.000  
 16  9 24 21 29  1.8000000  0 11G18G20G21G 2G 4G 5G24G29G30G13G15
  22967658.672     -902541.8363       2950.535          27.000  
  20006377.347     -250696.251         791.200          49.000  
  22047896.050     -868934.530        2834.746          47.000  
  24397687.857      153926.531       -2473.535          34.000  
  21856938.387      368506.434       -1252.090          48.000  
  22552746.973      610844.339       -1981.193          49.000  
  25462654.228      -12001.7353       3911.911          22.000  
  21312370.210      519850.5292      -1738.413          32.000  
  24874383.202      -24104.853         196.865          36.000  
  20779483.593      -88992.397         217.401          50.000  
  20391605.702     -645117.133        2039.202          49.000  
 16  9 24 21 29  2.0000000  0 11G18G20G21G 2G 4G 5G24G29G30G13G15
  22967546.048     -903132.1313       2951.711          27.000  
  20006347.159     -250854.498         791.227          49.000  
  22047788.033     -869501.535        2835.069          47.000  
  24397782.437      154421.245       -2475.052          34.000  
  21856986.061      368756.873       -1252.118          48.000  
  22552822.393      611240.558       -1981.276          48.000  
  25462506.739      -12784.2913       3923.736          21.000  
  21312435.160      520198.3502      -1738.099          32.000  
  24874375.664      -24144.219         199.000          36.000  
  20779475.426      -89035.846         217.374          50.000  
  20391527.944     -645524.995        2039.550          49.000  
 16  9 24 21 29  2.4000000  0 11G18G20G21G 2G 4G 5G24G29G30G13G15
  22967321.743     -904312.6743       2952.296          27.000  
  20006286.990     -251170.931         790.890          49.000  
  22047572.139     -870635.482        2834.839          47.000  
  24397970.969      155410.777       -2473.960          34.000  
  21857081.479      369257.842       -1252.394          48.000  
  22552973.024      612033.038       -1981.291          48.000  
  25462204.013      -14353.2373       3913.835          20.000  
  21312568.724      520893.9682      -1739.289          32.000  
  24874360.622      -24222.922         197.297          36.000  
  20779458.953      -89122.630         216.840          50.000  
  20391372.776     -646340.610        2039.076          49.000  
 16  9 24 21 29  2.6000000  0 11G18G20G21G 2G 4G 5G24G29G30G13G15
  22967209.503     -904902.9673       2951.253          27.000  
  20006256.906     -251329.101         791.009          49.000  
  22047464.297     -871202.438        2834.781          47.000  
  24398065.375      155905.547       -2473.393          34.000  
  21857129.293      369508.365       -1252.794          48.000  
  22553048.339      612429.300       -1981.017          48.000  
  25462051.044      -15135.9963       3913.835          20.000  
  21312635.000      521241.8372      -1738.258          32.000  
  24874352.944      -24262.216         198.242          36.000  
  20779450.472      -89165.965         216.779          50.000  
  20391295.297     -646748.362        2038.708          49.000  
 16  9 24 21 29  2.8000000  0 11G18G20G21G 2G 4G 5G24G29G30G13G15
  22967097.159     -905493.2563       2952.021          27.000  
  20006226.753     -251487.315         790.959          49.000  
  22047356.351     -871769.426        2834.746          47.000  
  24398159.746      156400.278       -2473.204          34.000  
  21857176.967      369758.870       -1252.677          48.000  
  22553123.585      612825.517       -1981.218          48.000  
  25461899.577      -15918.7623       3913.835          19.000  
  21312703.964      521589.7092      -1738.793          32.000  
  24874345.476      -24301.543         197.845          36.000  
  20779442.167      -89209.328         216.516          50.000  
  20391217.680     -647156.144        2038.760          49.000  
 16  9 24 21 29  3.0000000  0 11G18G20G21G 2G 4G 5G24G29G30G13G15
  22966984.920     -906083.5033       2951.915          27.000  
  20006196.739     -251645.487         790.843          49.000  
  22047248.473     -872336.375        2834.935          47.000  
  24398253.873      156895.029       -2474.723          34.000  
  21857224.746      370009.420       -1252.883          48.000  
  22553198.935      613221.774       -1981.037          48.000  
  25461749.017      -16701.9333       3916.143          19.000  
  21312769.472      521937.6032      -1738.876          32.000  
  24874338.007      -24340.780         196.116          36.000  
  20779434.070      -89252.629         216.352          50.000  
  20391140.131     -647563.872        2038.495          49.000  
 16  9 24 21 29  3.4000000  0 11G18G20G21G 2G 4G 5G24G29G30G13G15
  22966760.998     -907263.9803       2950.931          28.000  
  20006136.535     -251961.718         790.492          49.000  
  22047032.684     -873470.212        2834.673          47.000  
  24398442.684      157884.658       -2474.814          34.000  
  21857320.094      370510.623       -1253.124          48.000  
  22553349.181      614014.332       -1981.542          48.000  
  25461444.196      -18268.3833       3916.143          17.000  
  21312901.570      522633.5232      -1740.268          32.000  
  24874323.384      -24419.221         196.505          35.000  
  20779417.841      -89339.103         216.063          50.000  
  20390984.789     -648379.186        2038.182          49.000  
 16  9 24 21 29  3.6000000  0 11G18G20G21G 2G 4G 5G24G29G30G13G15
  22966649.108     -907854.1973       2951.235          28.000  
  20006106.346     -252119.858         790.634          49.000  
  22046924.737     -874037.155        2834.561          47.000  
  24398536.985      158379.430       -2475.078          34.000  
  21857367.559      370761.220       -1252.933          48.000  
  22553424.217      614410.579       -1981.463          48.000  
  25461293.741      -19051.1353       3907.512          17.000  
  21312967.846      522981.4612      -1739.772          32.000  
  24874315.985      -24458.421         195.233          35.000  
  20779409.500      -89382.342         216.034          50.000  
  20390907.136     -648786.853        2038.107          49.000  
 16  9 24 21 29  3.8000000  0 11G18G20G21G 2G 4G 5G24G29G30G13G15
  22966536.764     -908444.4463       2951.383          27.000  
  20006076.368     -252277.978         790.797          49.000  
  22046816.826     -874604.097        2834.855          47.000  
  24398631.217      158874.250       -2473.887          34.000  
  21857415.303      371011.843       -1252.868          48.000  
  22553499.498      614806.834       -1981.170          48.000  
  25461144.926      -19832.6323       3907.512          16.000  
  21313035.693      523329.3902      -1741.460          32.000  
  24874308.378      -24497.633         195.197          35.000  
  20779401.369      -89425.548         216.188          50.000  
  20390829.692     -649194.487        2038.520          49.000  
 16  9 24 21 29  4.0000000  0 11G18G20G21G 2G 4G 5G24G29G30G13G15
  22966424.629     -909034.6853       2951.794          27.000  
  20006046.214     -252436.084         790.469          49.000  
  22046708.844     -875171.022        2834.614          47.000  
  24398725.518      159369.027       -2473.888          34.000  
  21857463.012      371262.486       -1253.283          48.000  
  22553574.779      615203.096       -1981.180          48.000  
  25460995.029      -20614.1403       3907.512          15.000  
  21313102.283      523677.4202      -1739.858          32.000  
  24874300.944      -24536.782         193.993          34.000  
  20779393.097      -89468.730         215.608          50.000  
  20390752.248     -649602.100        2037.847          49.000  
 16  9 24 21 29  4.2000000  0 11G18G20G21G 2G 4G 5G24G29G30G13G15
  22966313.053     -909624.9243       2952.280          27.000  
  20006016.096     -252594.225         790.807          49.000  
  22046600.863     -875737.994        2834.712          47.000  
  24398819.890      159863.793       -2474.197          34.000  
  21857510.652      371513.103       -1253.048          48.000  
  22553649.885      615599.313       -1980.748          48.000  
  25460845.586      -21395.6373       3907.512          15.000  
  21313166.920      524025.3612      -1740.072          32.000  
  24874293.546      -24575.938         196.296          34.000  
  20779384.897      -89511.931         216.073          50.000  
  20390674.735     -650009.734        2038.049          49.000  
 16  9 24 21 29  4.4000000  0 12G18G20G26G21G 2G 4G 5G24G29G30G13G15
  22966200.709     -910215.2853       2951.390          27.000  
  20005986.151     -252752.341         790.272          49.000  
  25688783.855      -78659.4373      -1018.335          29.000  
  22046492.951     -876304.945        2834.782          47.000  
  24398914.295      160358.551       -2474.461          34.000  
  21857558.256      371763.743       -1253.319          48.000  
  22553725.130      615995.543       -1981.349          48.000  
  25460692.896      -22177.1353       3907.512          14.000  
  21313232.672      524373.3182      -1741.323          32.000  
  24874286.217      -24615.123         196.521          34.000  
  20779376.486      -89555.098         215.664          50.000  
  20390597.256     -650417.334        2037.820          49.000  
 16  9 24 21 29  4.6000000  0 12G18G20G26G21G 2G 4G 5G24G29G30G13G15
  22966089.097     -910805.5423       2951.111          27.000  
  20005955.997     -252910.437         790.952          49.000  
  25688821.792      -78455.8753      -1017.345          29.000  
  22046384.934     -876871.888        2835.392          47.000  
  24399008.596      160853.331       -2473.711          34.000  
  21857605.756      372014.399       -1252.984          48.000  
  22553800.446      616391.779       -1980.743          48.000  
  25460543.383      -22958.6323       3907.512          14.000  
  21313300.344      524721.3472      -1739.811          32.000  
  24874278.853      -24654.227         198.778          34.000  
  20779368.389      -89598.242         216.214          50.000  
  20390519.673     -650824.915        2038.141          49.000  
 16  9 24 21 29  4.8000000  0 12G18G20G26G21G 2G 4G 5G24G29G30G13G15
  22965977.067     -911395.7913       2951.507          28.000  
  20005925.914     -253068.559         790.438          49.000  
  25688860.671      -78252.3233      -1017.665          29.000  
  22046277.162     -877438.853        2834.739          47.000  
  24399102.898      161348.051       -2473.392          34.000  
  21857653.570      372265.052       -1253.058          48.000  
  22553875.762      616787.990       -1980.944          48.000  
  25460394.847      -23740.1393       3907.512          13.000  
  21313367.458      525069.3422      -1739.668          32.000  
  24874271.594      -24693.398         193.864          33.000  
  20779360.258      -89641.386         215.751          50.000  
  20390442.020     -651232.491        2037.967          49.000  
 16  9 24 21 29  5.0000000  0 12G18G20G26G21G 2G 4G 5G24G30G13G29G15
  22965864.513     -911986.1143       2951.701          28.000  
  20005895.934     -253226.665         790.874          49.000  
  25688899.376      -78048.8183      -1017.856          29.000  
  22046169.215     -878005.823        2835.112          47.000  
  24399197.025      161842.831       -2472.602          34.000  
  21857701.244      372515.713       -1253.209          48.000  
  22553951.042      617184.204       -1980.962          48.000  
  25460245.823      -24521.8373       3920.699          13.000  
  24874264.021      -24732.539         195.666          33.000  
  20779352.300      -89684.511         215.640          50.000  
  21313433.246      525417.3292      -1739.727          32.000  
  20390364.506     -651640.053        2037.998          49.000  
 16  9 24 21 29  5.4000000  0 12G18G20G26G21G 2G 4G 5G24G30G13G29G15
  22965640.139     -913166.7033       2951.872          28.000  
  20005835.905     -253542.870         790.205          49.000  
  25688977.797      -77641.7223      -1017.712          29.000  
  22045953.426     -879139.747        2834.248          47.000  
  24399385.731      162832.303       -2473.407          34.000  
  21857796.802      373017.077       -1253.898          48.000  
  22554101.602      617976.622       -1981.231          48.000  
  25459943.515      -26090.1063       3920.699          11.000  
  24874249.432      -24810.7653        194.824          32.000  
  20779335.653      -89770.703         214.793          50.000  
  21313565.902      526113.3902      -1742.185          32.000  
  20390209.653     -652455.124        2037.344          49.000  
 16  9 24 21 29  5.6000000  0 12G18G20G26G21G 2G 4G 5G24G30G13G29G15
  22965528.038     -913756.9323       2951.286          28.000  
  20005805.856     -253700.895         789.860          49.000  
  25689015.280      -77438.1123      -1017.714          29.000  
  22045845.618     -879706.653        2834.660          47.000  
  24399480.067      163327.123       -2473.746          34.000  
  21857844.511      373267.846       -1254.007          48.000  
  22554176.917      618372.881       -1981.536          48.000  
  25459793.722      -26874.2463       3920.699          10.000  
  24874241.999      -24849.7653        196.214          32.000  
  20779327.521      -89813.709         214.998          50.000  
  21313631.899      526461.5182      -1740.127          32.000  
  20390132.139     -652862.575        2037.069          49.000  
 16  9 24 21 29  5.8000000  0 12G18G20G26G21G 2G 4G 5G24G30G13G29G15
  22965416.183     -914347.1613       2951.310          28.000  
  20005775.598     -253858.918         790.204          49.000  
  25689053.672      -77234.4513      -1017.787          29.000  
  22045737.777     -880273.561        2834.536          47.000  
  24399574.369      163821.923       -2472.898          34.000  
  21857892.290      373518.620       -1253.952          48.000  
  22554252.268      618769.142       -1981.185          48.000  
  25459644.070      -27658.3853       3920.699          10.000  
  24874234.531      -24888.7742        195.794          31.000  
  20779319.285      -89856.705         214.909          50.000  
  21313698.071      526809.6202      -1740.125          33.000  
  20390054.626     -653270.014        2037.037          49.000  
 16  9 24 21 29  6.0000000  0 12G18G20G26G21G 2G 4G 5G24G30G13G29G15
  22965304.153     -914937.4103       2951.192          28.000  
  20005745.375     -254016.943         790.123          49.000  
  25689094.156      -77030.8313      -1017.989          29.000  
  22045629.830     -880840.477        2834.582          47.000  
  24399668.600      164316.728       -2473.527          34.000  
  21857939.999      373769.398       -1253.736          48.000  
  22554327.409      619165.392       -1980.968          48.000  
  25459494.173      -28442.5243       3920.699           9.000  
  24874227.097      -24927.7603        203.207          31.000  
  20779311.189      -89899.691         214.757          50.000  
  21313764.207      527157.7472      -1740.172          33.000  
  20389977.147     -653677.446        2036.838          49.000  
 16  9 24 21 29  6.4000000  0 11G18G20G26G21G 2G 4G 5G24G13G29G15
  22965079.115     -916117.8933       2950.448          28.000  
  20005685.555     -254332.935         789.594          49.000  
  25689170.100      -76623.5263      -1018.728          29.000  
  22045414.145     -881974.263        2834.352          47.000  
  24399857.411      165306.336       -2474.908          33.000  
  21858035.312      374271.035       -1254.253          48.000  
  22554478.179      619957.910       -1981.792          48.000  
  25459192.738      -30010.7933       3920.699           9.000  
  20779294.925      -89985.545         214.346          50.000  
  21313896.655      527854.079       -1741.091          33.000  
  20389822.049     -654492.203        2036.400          49.000  
 16  9 24 21 29  6.6000000  0 11G18G20G26G21G 2G 4G 5G24G13G29G15
  22964966.317     -916708.0963       2951.298          28.000  
  20005655.401     -254490.918         790.108          50.000  
  25689209.363      -76419.8663      -1019.106          29.000  
  22045306.128     -882541.163        2834.840          47.000  
  24399951.782      165801.158       -2473.438          33.000  
  21858083.056      374521.863       -1254.214          48.000  
  22554553.494      620354.163       -1980.780          48.000  
  25459041.514      -30794.9323       3920.699          10.000  
  20779286.828      -90028.460         214.788          50.000  
  21313962.896      528202.207       -1742.196          33.000  
  20389744.605     -654899.550        2036.927          49.000  
 16  9 24 21 29  6.8000000  0 11G18G20G26G21G 2G 4G 5G24G13G29G15
  22964854.287     -917298.3603       2950.491          28.000  
  20005625.457     -254648.897         789.754          50.000  
  25689247.928      -76216.2043      -1018.912          29.000  
  22045198.007     -883108.057        2834.087          47.000  
  24400046.049      166295.974       -2473.402          33.000  
  21858130.905      374772.711       -1254.594          48.000  
  22554628.950      620750.415       -1981.456          47.000  
  25458891.513      -31579.0713       3920.699          10.000  
  20779278.767      -90071.346         214.189          50.000  
  21314029.277      528550.419       -1739.860          33.000  
  20389667.057     -655306.883        2036.573          49.000  
 16  9 24 21 29  7.0000000  0 11G18G20G26G21G 2G 4G 5G24G13G29G15
  22964741.908     -917888.5353       2951.119          28.000  
  20005595.478     -254806.845         790.020          50.000  
  25689285.516      -76012.4583      -1017.962          30.000  
  22045090.165     -883674.930        2834.432          47.000  
  24400140.385      166790.829       -2474.001          33.000  
  21858178.579      375023.600       -1254.344          48.000  
  22554704.439      621146.700       -1981.093          47.000  
  25458741.441      -32363.2113       3914.257          11.000  
  20779270.565      -90114.185         214.302          50.000  
  21314095.623      528898.644       -1741.041          32.000  
  20389589.369     -655714.183        2036.567          49.000  
 16  9 24 21 29  7.2000000  0 11G18G20G26G21G 2G 4G 5G24G13G29G15
  22964629.808     -918478.7803       2951.105          28.000  
  20005565.325     -254964.806         789.925          50.000  
  25689324.850      -75808.7693      -1017.371          30.000  
  22044982.254     -884241.825        2834.872          47.000  
  24400234.757      167285.575       -2473.816          33.000  
  21858226.359      375274.478       -1254.215          48.000  
  22554779.720      621542.945       -1981.452          47.000  
  25458592.312      -33146.0863       3914.257          12.000  
  20779262.225      -90157.038         214.064          50.000  
  21314162.004      529246.840       -1740.938          32.000  
  20389511.751     -656121.492        2036.728          49.000  
 16  9 24 21 29  7.4000000  0 11G18G20G26G21G 2G 4G 5G24G13G29G15
  22964517.813     -919069.0103       2951.932          27.000  
  20005535.345     -255122.757         789.405          50.000  
  25689361.600      -75605.0693      -1018.115          30.000  
  22044874.307     -884808.698        2834.426          47.000  
  24400329.267      167780.425       -2474.775          33.000  
  21858274.103      375525.376       -1254.348          48.000  
  22554855.070      621939.202       -1981.274          47.000  
  25458443.113      -33928.9383       3914.257          12.000  
  20779254.268      -90199.853         214.027          50.000  
  21314228.350      529595.074       -1742.518          32.000  
  20389434.133     -656528.763        2036.523          49.000  
 16  9 24 21 29  7.6000000  0 11G18G20G26G21G 2G 4G 5G24G13G29G15
  22964404.456     -919659.2953       2950.524          27.000  
  20005505.122     -255280.700         789.780          50.000  
  25689400.200      -75401.3683      -1017.611          30.000  
  22044766.325     -885375.593        2834.804          47.000  
  24400423.498      168275.212       -2473.766          33.000  
  21858321.881      375776.274       -1254.512          48.000  
  22554930.281      622335.452       -1980.943          47.000  
  25458293.460      -34711.7883       3926.883          12.000  
  20779246.241      -90242.663         214.145          50.000  
  21314294.626      529943.352       -1739.786          32.000  
  20389356.549     -656936.034        2036.258          49.000  
 16  9 24 21 29  7.8000000  0 11G18G20G26G21G 2G 4G 5G24G13G29G15
  22964292.043     -920249.4773       2951.698          27.000  
  20005475.213     -255438.665         789.867          50.000  
  25689439.045      -75197.6973      -1018.643          30.000  
  22044658.344     -885942.509        2834.209          47.000  
  24400517.905      168770.004       -2474.160          33.000  
  21858369.731      376027.170       -1254.763          48.000  
  22555005.597      622731.669       -1980.865          47.000  
  25458143.877      -35497.0953       3926.883          12.000  
  20779238.214      -90285.473         213.711          50.000  
  21314360.903      530291.534       -1742.227          32.000  
  20389279.071     -657343.309        2035.967          49.000  
 16  9 24 21 29  8.0000000  0 11G18G20G26G21G 2G 4G 5G24G13G29G15
  22964179.489     -920839.7713       2950.394          27.000  
  20005445.303     -255596.595         789.687          50.000  
  25689478.168      -74993.9803      -1017.438          30.000  
  22044550.327     -886509.398        2833.963          47.000  
  24400612.345      169264.848       -2474.764          33.000  
  21858417.405      376278.106       -1254.770          48.000  
  22555080.877      623127.908       -1981.164          47.000  
  25457994.678      -36281.8473       3908.990          13.000  
  20779230.082      -90328.231         213.753          50.000  
  21314427.179      530639.811       -1740.455          32.000  
  20389201.627     -657750.537        2035.833          49.000  
 16  9 24 21 29  8.2000000  0 11G18G20G26G21G 2G 4G 5G24G13G29G15
  22964067.040     -921429.9933       2949.558          27.000  
  20005415.289     -255754.474         789.477          50.000  
  25689517.222      -74790.2393      -1018.895          30.000  
  22044442.380     -887076.243        2834.133          47.000  
  24400706.960      169759.720       -2475.113          33.000  
  21858465.079      376529.084       -1254.972          48.000  
  22555156.192      623524.186       -1981.327          47.000  
  25457845.897      -37064.8203       3930.404          14.000  
  20779221.951      -90370.936         213.557          50.000  
  21314493.594      530988.166       -1738.468          32.000  
  20389123.973     -658157.689        2036.092          49.000  
 16  9 24 21 29  8.4000000  0 11G18G20G26G21G 2G 4G 5G24G13G29G15
  22963955.010     -922020.2083       2949.789          27.000  
  20005385.275     -255912.372         789.047          50.000  
  25689556.311      -74586.4583      -1018.803          30.000  
  22044334.538     -887643.106        2833.847          47.000  
  24400801.402      170254.553       -2473.407          32.000  
  21858512.753      376780.073       -1254.746          48.000  
  22555231.473      623920.438       -1981.435          47.000  
  25457695.966      -37850.8983       3930.404          14.000  
  20779214.204      -90413.641         213.625          50.000  
  21314559.941      531336.436       -1741.469          32.000  
  20389046.530     -658564.860        2035.713          49.000  
 16  9 24 21 29  8.6000000  0 11G18G20G26G21G 2G 4G 5G24G13G29G15
  22963842.456     -922610.4083       2950.540          27.000  
  20005355.121     -256070.266         789.398          50.000  
  25689595.155      -74382.7293      -1019.906          30.000  
  22044226.521     -888209.982        2834.276          47.000  
  24400895.633      170749.375       -2473.948          32.000  
  21858560.427      377031.052       -1254.995          48.000  
  22555306.753      624316.688       -1981.108          47.000  
  25457546.732      -38635.3193       3919.730          15.000  
  20779206.037      -90456.336         213.319          50.000  
  21314626.286      531684.775       -1742.197          32.000  
  20388968.947     -658972.021        2036.121          49.000  
 16  9 24 21 29  8.8000000  0 11G18G20G26G21G 2G 4G 5G24G13G29G15
  22963730.287     -923200.6383       2951.413          27.000  
  20005325.073     -256228.139         789.495          50.000  
  25689633.651      -74178.9523      -1018.531          30.000  
  22044118.540     -888776.841        2834.088          47.000  
  24400990.074      171244.154       -2475.110          32.000  
  21858608.207      377282.064       -1255.229          48.000  
  22555382.209      624712.950       -1981.120          47.000  
  25457397.673      -39419.6683       3927.422          16.000  
  20779197.941      -90498.994         213.246          50.000  
  21314692.528      532033.120       -1741.793          32.000  
  20388891.538     -659379.153        2035.473          49.000  
 16  9 24 21 29  9.0000000  0 11G18G20G26G21G 2G 4G 5G24G13G29G15
  22963617.663     -923790.8683       2951.391          27.000  
  20005295.058     -256386.043         788.967          50.000  
  25689673.577      -73975.1383      -1017.908          30.000  
  22044010.698     -889343.731        2834.432          47.000  
  24401084.480      171738.998       -2474.693          32.000  
  21858655.986      377533.058       -1254.850          48.000  
  22555457.629      625109.173       -1981.249          47.000  
  25457247.775      -40205.0803       3924.457          16.000  
  20779189.495      -90541.666         213.075          50.000  
  21314758.734      532381.422       -1742.021          32.000  
  20388814.059     -659786.291        2035.655          49.000  
 16  9 24 21 29  9.2000000  0 11G18G20G26G21G 2G 4G 5G24G13G29G15
  22963505.109     -924381.1273       2949.625          27.000  
  20005265.044     -256543.903         788.950          50.000  
  25689712.631      -73771.3923      -1020.121          30.000  
  22043902.995     -889910.589        2833.590          47.000  
  24401178.851      172233.794       -2472.580          32.000  
  21858703.799      377784.097       -1255.413          48.000  
  22555532.944      625505.413       -1981.868          47.000  
  25457097.215      -40989.8733       3921.624          17.000  
  20779181.607      -90584.299         212.644          50.000  
  21314825.220      532729.791       -1742.701          32.000  
  20388736.545     -660193.385        2035.271          49.000  
 16  9 24 21 29  9.4000000  0 11G18G20G26G21G 2G 4G 5G24G13G29G15
  22963392.905     -924971.3013       2950.889          27.000  
  20005235.065     -256701.732         789.245          50.000  
  25689752.314      -73567.6073      -1019.367          30.000  
  22043795.014     -890477.426        2834.354          47.000  
  24401273.327      172728.671       -2475.232          32.000  
  21858751.614      378035.162       -1255.296          48.000  
  22555608.295      625901.687       -1980.882          47.000  
  25456948.400      -41773.9573       3917.294          18.000  
  20779173.581      -90626.876         212.711          50.000  
  21314891.462      533078.186       -1741.631          32.000  
  20388659.102     -660600.437        2035.341          49.000  
 16  9 24 21 29  9.6000000  0 11G18G20G26G21G 2G 4G 5G24G13G29G15
  22963281.259     -925561.5123       2951.524          27.000  
  20005205.156     -256859.559         788.923          50.000  
  25689791.612      -73363.7583      -1018.338          30.000  
  22043686.962     -891044.260        2834.117          47.000  
  24401367.803      173223.581       -2474.951          31.000  
  21858799.427      378286.244       -1255.562          48.000  
  22555683.610      626297.948       -1981.385          47.000  
  25456799.410      -42557.4603       3920.668          18.000  
  20779165.519      -90669.443         212.589          50.000  
  21314957.598      533426.602       -1743.329          32.000  
  20388581.658     -661007.479        2035.103          49.000  
 16  9 24 21 29  9.8000000  0 11G18G20G26G21G 2G 4G 5G24G13G29G15
  22963168.496     -926151.6573       2951.159          27.000  
  20005175.003     -257017.392         788.800          50.000  
  25689831.399      -73159.9583      -1018.383          31.000  
  22043579.086     -891611.109        2833.887          47.000  
  24401462.349      173718.426       -2473.321          31.000  
  21858847.207      378537.329       -1255.664          48.000  
  22555759.100      626694.212       -1981.493          47.000  
  25456650.596      -43341.5923       3920.668          18.000  
  20779157.284      -90711.995         212.715          50.000  
  21315023.805      533775.018       -1743.380          32.000  
  20388504.180     -661414.516        2034.725          49.000  
 16  9 24 21 29 10.0000000  0 11G18G20G26G21G 2G 4G 5G24G13G29G15
  22963056.361     -926741.9163       2951.136          27.000  
  20005144.849     -257175.186         789.003          50.000  
  25689869.440      -72956.1283      -1019.272          31.000  
  22043471.034     -892177.925        2834.452          47.000  
  24401556.894      174213.254       -2474.601          31.000  
  21858894.916      378788.454       -1255.715          48.000  
  22555834.485      627090.483       -1981.646          47.000  
  25456501.431      -44125.3503       3918.509          18.000  
  20779149.256      -90754.505         212.236          51.000  
  21315090.081      534123.418       -1743.667          32.000  
  20388426.666     -661821.497        2035.143          49.000  
 16  9 24 21 29 10.2000000  0 11G18G20G26G21G 2G 4G 5G24G13G29G15
  22962943.807     -927332.1213       2950.362          27.000  
  20005114.834     -257332.985         788.914          50.000  
  25689907.901      -72752.2713      -1018.395          31.000  
  22043363.052     -892744.760        2833.965          47.000  
  24401651.265      174708.086       -2472.178          31.000  
  21858942.590      379039.583       -1255.369          48.000  
  22555909.626      627486.743       -1981.067          47.000  
  25456352.023      -44909.2243       3919.863          19.000  
  20779141.299      -90797.010         212.419          51.000  
  21315156.287      534471.916       -1740.546          32.000  
  20388349.152     -662228.481        2034.502          49.000  
 16  9 24 21 29 10.4000000  0 11G18G20G26G21G 2G 4G 5G24G13G29G15
  22962830.591     -927922.2563       2951.027          27.000  
  20005084.856     -257490.693         788.959          50.000  
  25689947.060      -72548.3623      -1020.095          31.000  
  22043255.176     -893311.509        2834.058          47.000  
  24401745.811      175203.044       -2472.111          30.000  
  21858990.299      379290.802       -1255.822          48.000  
  22555985.117      627883.080       -1981.816          47.000  
  25456203.138      -45693.6543       3924.702          19.000  
  20779133.447      -90839.410         212.165          51.000  
  21315222.634      534820.449       -1743.012          32.000  
  20388271.849     -662635.365        2034.558          49.000  
 16  9 24 21 29 10.6000000  0 11G18G20G26G21G 2G 4G 5G24G13G29G15
  22962718.526     -928512.3923       2950.548          27.000  
  20005054.737     -257648.406         788.781          50.000  
  25689986.393      -72344.4183      -1019.148          31.000  
  22043147.229     -893878.253        2833.800          47.000  
  24401840.356      175698.027       -2470.573          30.000  
  21859038.043      379542.040       -1255.919          48.000  
  22556060.571      628279.425       -1981.581          47.000  
  25456053.625      -46478.1323       3916.265          20.000  
  20779125.490      -90881.795         211.703          51.000  
  21315288.875      535168.973       -1742.320          32.000  
  20388194.335     -663042.231        2034.379          49.000  
 16  9 24 21 29 10.8000000  0 12G18G20G26G21G 2G 4G 5G24G30G13G29G15
  22962605.240     -929102.4273       2950.861          27.000  
  20005024.932     -257806.082         788.418          50.000  
  25690025.412      -72140.4563      -1019.157          31.000  
  22043039.282     -894444.981        2833.854          47.000  
  24401934.728      176192.934       -2474.701          30.000  
  21859085.788      379793.298       -1256.278          48.000  
  22556135.992      628675.775       -1981.787          47.000  
  25455905.194      -47260.8743       3909.471          20.000  
  24874021.332        -559.6253        199.892          33.000  
  20779117.394      -90924.138         211.735          51.000  
  21315354.977      535517.595       -1743.878          32.000  
  20388116.892     -663449.058        2033.994          49.000  
 16  9 24 21 29 11.0000000  0 12G18G20G26G21G 2G 4G 5G24G30G13G29G15
  22962492.965     -929692.5423       2950.137          27.000  
  20004994.848     -257963.757         788.280          50.000  
  25690064.989      -71936.4743      -1019.370          31.000  
  22042931.510     -895011.714        2833.664          47.000  
  24402029.238      176687.875       -2476.079          30.000  
  21859133.706      380044.581       -1256.480          48.000  
  22556211.482      629072.130       -1981.857          47.000  
  25455756.134      -48043.8503       3920.896          20.000  
  24874004.859        -598.0513        189.659          33.000  
  20779109.192      -90966.462         211.619          51.000  
  21315421.218      535866.201       -1742.959          32.000  
  20388039.413     -663855.866        2034.131          49.000  
 16  9 24 21 29 11.4000000  0 12G18G20G26G21G 2G 4G 5G24G30G13G29G15
  22962268.695     -930872.7623       2950.431          27.000  
  20004934.959     -258279.054         787.897          50.000  
  25690142.643      -71528.4983      -1020.122          31.000  
  22042715.651     -896145.144        2833.226          47.000  
  24402218.433      177677.839       -2476.123          29.000  
  21859229.159      380547.205       -1256.924          48.000  
  22556362.286      629864.841       -1982.257          47.000  
  25455458.887      -49611.5133       3918.185          19.000  
  24873983.360        -674.1553        190.183          34.000  
  20779093.417      -91051.028         211.162          51.000  
  21315553.840      536563.440       -1744.817          32.000  
  20387884.664     -664669.406        2033.276          49.000  
 16  9 24 21 29 11.6000000  0 12G18G20G26G21G 2G 4G 5G24G30G13G29G15
  22962156.176     -931462.8463       2951.172          27.000  
  20004904.875     -258436.658         787.772          50.000  
  25690182.848      -71324.3113      -1020.190          31.000  
  22042607.739     -896711.825        2833.463          47.000  
  24402312.909      178172.826       -2474.569          29.000  
  21859276.833      380798.562       -1256.952          48.000  
  22556437.741      630261.245       -1981.810          47.000  
  25455310.002      -50394.9473       3916.082          19.000  
  24873971.389        -712.3383        192.077          34.000  
  20779085.425      -91093.252         210.868          51.000  
  21315620.011      536912.158       -1745.081          32.000  
  20387807.325     -665076.120        2033.193          49.000  
 16  9 24 21 29 11.8000000  0 12G18G20G26G21G 2G 4G 5G24G30G13G29G15
  22962044.146     -932052.8743       2950.332          27.000  
  20004874.966     -258594.281         788.034          50.000  
  25690223.089      -71120.3032      -1019.234          31.000  
  22042499.757     -897278.533        2833.598          47.000  
  24402407.350      178667.761       -2478.327          29.000  
  21859324.822      381049.921       -1256.891          48.000  
  22556513.301      630657.595       -1982.280          47.000  
  25455161.467      -51178.1613       3916.408          19.000  
  24873965.771        -750.5723        191.947          34.000  
  20779077.364      -91135.485         210.773          51.000  
  21315686.427      537260.827       -1745.113          32.000  
  20387729.916     -665482.833        2033.512          49.000  
 16  9 24 21 29 12.0000000  0 12G18G20G26G21G 2G 4G 5G24G30G13G29G15
  22961931.837     -932642.9863       2949.840          26.000  
  20004844.847     -258751.862         787.972          50.000  
  25690260.781      -70916.2282      -1017.997          31.000  
  22042391.810     -897845.214        2833.776          47.000  
  24402501.930      179162.764       -2475.613          28.000  
  21859372.461      381301.303       -1256.610          48.000  
  22556588.756      631053.997       -1981.591          47.000  
  25455012.477      -51961.6333       3929.485          19.000  
  24873960.710        -788.8453        191.833          35.000  
  20779069.232      -91177.661         211.171          51.000  
  21315752.773      537609.550       -1742.110          32.000  
  20387652.542     -665889.503        2033.727          49.000  
 16  9 24 21 29 12.4000000  0 12G18G20G26G21G 2G 4G 5G24G30G13G29G15
  22961706.206     -933823.0953       2950.756          27.000  
  20004784.958     -259067.014         787.370          50.000  
  25690338.260      -70508.0752      -1018.238          31.000  
  22042176.126     -898978.566        2832.904          46.000  
  24402690.951      180152.823       -2474.128          28.000  
  21859468.088      381804.135       -1257.174          48.000  
  22556739.456      631846.759       -1982.394          47.000  
  25454714.985      -53529.8993       3923.517          19.000  
  24873948.495        -865.4813        191.283          37.000  
  20779053.597      -91261.960         210.356          51.000  
