     2.10           OBSERVATION DATA    G (GPS)             RINEX VERSION / TYPE
RTKCONV 2.4.2                           20161014 212744 UTC PGM / RUN BY / DATE 
log: C:\Users\macshen\Desktop\asus_1014.ubx                 COMMENT             
format: u-blox                                              COMMENT             
                                                            MARKER NAME         
                                                            MARKER NUMBER       
                                                            OBSERVER / AGENCY   
                                                            REC # / TYPE / VERS 
                                                            ANT # / TYPE        
   517530.7908 -4696408.8778  4270462.4362                  APPROX POSITION XYZ 
        0.0000        0.0000        0.0000                  ANTENNA: DELTA H/E/N
     1     1                                                WAVELENGTH FACT L1/2
     4    C1    L1    D1    S1                              # / TYPES OF OBSERV 
  1980     1    11    20    49   15.6720000     GPS         TIME OF FIRST OBS   
  2016    10    14    21     3   50.8000000     GPS         TIME OF LAST OBS    
                                                            END OF HEADER       
 80  1 11 20 49 15.6720000  0  1G15
  21437184.699        2491.5922       -278.102          48.000  
 80  1 11 20 49 15.8000000  0  4G18G29G13G15
  23304663.847      -11008.4452       1876.793          47.000  
  23996827.501       21682.0812      -3345.570          44.000  
  22686557.136       13594.7192      -1992.564          44.000  
  21437191.051        2527.2142       -278.563          48.000  
 80  1 11 20 49 16.0000000  0  4G18G29G13G15
  23304591.777      -11383.7042       1875.792          47.000  
  23996954.661       22351.2742      -3345.632          44.000  
  22686633.708       13993.3302      -1993.050          44.000  
  21437201.608        2582.9652       -279.079          48.000  
 80  1 11 20 49 16.2000000  0  4G18G29G13G15
  23304520.197      -11758.8792       1875.621          47.000  
  23997082.309       23020.5202      -3347.061          44.000  
  22686709.163       14392.0182      -1993.951          44.000  
  21437211.380        2638.8032       -279.825          48.000  
 80  1 11 20 49 16.4000000  0  7G18G29G20G 4G21G13G15
  23304448.581      -12133.9442       1875.110          47.000  
  23997209.993       23689.9242      -3346.804          44.000  
  21497674.011        6445.0982       -834.500          46.000  
  24418420.242       20655.5522      -2990.717          42.000  
  22530907.337       -9463.6962       1497.014          46.000  
  22686785.699       14790.8442      -1994.372          44.000  
  21437222.618        2694.7882       -279.877          48.000  
 80  1 11 20 49 16.6000000  0  7G18G29G20G 4G21G13G15
  23304377.349      -12508.9042       1874.715          47.000  
  23997337.117       24359.3982      -3347.321          44.000  
  21497705.962        6612.0482       -834.707          46.000  
  24418533.040       21253.7572      -2990.826          42.000  
  22530849.943       -9763.0122       1496.389          46.000  
  22686861.677       15189.7812      -1994.701          44.000  
  21437233.454        2750.8812       -280.813          48.000  
 80  1 11 20 49 16.8000000  0  7G18G29G20G 4G21G13G15
  23304306.012      -12883.7722       1873.994          47.000  
  23997464.259       25028.9772      -3348.416          44.000  
  21497737.704        6779.1122       -835.319          46.000  
  24418646.903       21852.0532      -2992.062          42.000  
  22530793.613      -10062.1962       1495.879          46.000  
  22686937.655       15588.8362      -1995.589          44.000  
  21437244.029        2807.1002       -281.168          48.000  
 80  1 11 20 49 17.0000000  0  8G18G29G20G 4G21G24G13G15
  23304234.658      -13258.5082       1873.449          47.000  
  23997591.855       25698.6952      -3348.748          44.000  
  21497769.638        6946.3002       -835.601          46.000  
  24418760.818       22450.4932      -2991.841          41.000  
  22530737.005      -10361.2902       1495.013          46.000  
  25179193.423      -22258.8582       3352.956          42.000  
  22687013.512       15988.0152      -1996.203          44.000  
  21437254.743        2863.4562       -281.629          48.000  
 80  1 11 20 49 17.2000000  0  8G18G29G20G 4G21G24G13G15
  23304163.392      -13633.1842       1872.599          47.000  
  23997719.469       26368.4742      -3349.137          44.000  
  21497801.345        7113.5582       -836.761          46.000  
  24418874.558       23048.9852      -2992.675          41.000  
  22530680.274      -10660.2792       1495.118          46.000  
  25179066.089      -22929.3852       3352.190          42.000  
  22687089.403       16387.2902      -1997.113          44.000  
  21437265.475        2919.8902       -282.853          48.000  
 80  1 11 20 49 17.4000000  0  8G18G29G20G 4G21G24G13G15
  23304092.456      -14007.7782       1872.480          47.000  
  23997846.751       27038.3302      -3349.715          44.000  
  21497833.104        7280.9032       -837.313          46.000  
  24418988.386       23647.5762      -2993.798          41.000  
  22530623.247      -10959.1922       1494.129          46.000  
  25178938.476      -23599.8272       3352.594          42.000  
  22687165.189       16786.6672      -1996.695          44.000  
  21437276.260        2976.4322       -282.683          48.000  
 80  1 11 20 49 17.6000000  0  9G18G29G20G 4G21G24G 5G13G15
  23304021.346      -14382.2712       1872.488          47.000  
  23997974.468       27708.3062      -3350.001          44.000  
  21497864.916        7448.3602       -837.255          46.000  
  24419102.266       24246.2732      -2994.261          41.000  
  22530566.551      -11257.9952       1493.694          46.000  
  25178810.740      -24270.1762       3351.804          42.000  
  25252761.307       21725.2302      -2891.860          41.000  
  22687241.324       17186.1412      -1997.718          44.000  
  21437286.869        3033.0892       -283.649          48.000  
 80  1 11 20 49 17.8000000  0  9G18G29G20G 4G21G24G 5G13G15
  23303950.516      -14756.7162       1871.829          47.000  
  23998102.274       28378.3142      -3350.369          44.000  
  21497896.693        7615.8762       -837.576          46.000  
  24419216.006       24845.0192      -2993.528          41.000  
  22530509.837      -11556.7472       1493.523          46.000  
  25178683.493      -24940.4822       3350.750          42.000  
  25252871.471       22303.5432      -2892.143          41.000  
  22687317.407       17585.6692      -1998.517          44.000  
  21437297.810        3089.8222       -284.005          48.000  
 80  1 11 20 49 18.0000000  0  9G18G29G20G 4G21G24G 5G13G15
  23303879.528      -15131.0362       1871.173          47.000  
  23998229.625       29048.4612      -3351.269          44.000  
  21497928.504        7783.5132       -838.494          46.000  
  24419329.991       25443.9082      -2994.728          41.000  
  22530452.985      -11855.3622       1492.747          46.000  
  25178556.019      -25610.6572       3351.221          42.000  
  25252981.547       22881.9762      -2892.107          41.000  
  22687393.385       17985.3392      -1999.176          44.000  
  21437308.804        3146.6762       -284.733          48.000  
 80  1 11 20 49 18.2000000  0  9G18G29G20G 4G21G24G 5G13G15
  23303808.157      -15505.2472       1870.617          47.000  
  23998357.344       29718.7222      -3351.340          44.000  
  21497960.211        7951.2632       -839.142          46.000  
  24419443.923       26042.8842      -2995.783          41.000  
  22530395.940      -12153.8602       1492.748          46.000  
  25178428.667      -26280.7402       3349.781          42.000  
  25253091.832       23460.5042      -2892.508          41.000  
  22687469.433       18385.1382      -1999.794          44.000  
  21437319.571        3203.6762       -285.323          48.000  
 80  1 11 20 49 18.4000000  0  9G18G29G20G 4G21G24G 5G13G15
  23303737.047      -15879.3822       1870.345          47.000  
  23998484.643       30389.0602      -3351.155          44.000  
  21497992.320        8119.1092       -839.755          46.000  
  24419557.838       26641.9342      -2995.987          41.000  
  22530338.895      -12452.2782       1491.825          46.000  
  25178301.071      -26950.7332       3349.360          42.000  
  25253201.908       24039.1322      -2893.025          41.000  
  22687545.394       18785.0512      -1999.145          44.000  
  21437330.686        3260.7712       -285.955          48.000  
 80  1 11 20 49 18.6000000  0  9G18G29G20G 4G21G24G 5G13G15
  23303665.902      -16253.4072       1870.301          47.000  
  23998612.204       31059.5032      -3352.084          44.000  
  21498024.201        8287.0572       -839.974          46.000  
  24419671.823       27241.1182      -2996.122          41.000  
  22530282.234      -12750.5842       1491.231          46.000  
  25178173.614      -27620.6382       3349.328          42.000  
  25253311.949       24617.8482      -2893.107          41.000  
  22687621.424       19185.0592      -1999.978          44.000  
  21437341.208        3317.9922       -285.808          48.000  
 80  1 11 20 49 18.8000000  0  9G18G29G20G 4G21G24G 5G13G15
  23303594.601      -16627.3752       1869.847          47.000  
  23998739.834       31730.0172      -3352.815          44.000  
  21498056.536        8455.0882       -840.201          46.000  
  24419785.773       27840.3682      -2995.488          41.000  
  22530225.695      -13048.8122       1491.288          46.000  
  25178045.983      -28290.4802       3348.603          42.000  
  25253422.216       25196.6022      -2894.335          41.000  
  22687697.629       19585.1432      -2000.307          44.000  
  21437352.045        3375.2782       -286.578          48.000  
 80  1 11 20 49 19.0000000  0  9G18G29G20G 4G21G24G 5G13G15
  23303523.526      -17001.2622       1869.221          47.000  
  23998867.361       32400.6122      -3353.247          44.000  
  21498088.296        8623.1962       -840.844          46.000  
  24419899.688       28439.6972      -2996.134          41.000  
  22530168.842      -13346.9502       1490.430          46.000  
  25177918.370      -28960.2262       3349.065          42.000  
  25253532.258       25775.4492      -2894.155          41.000  
  22687773.852       19985.3252      -2001.530          44.000  
  21437363.021        3432.6792       -287.049          48.000  
 80  1 11 20 49 19.2000000  0  9G18G29G20G 4G21G24G 5G13G15
  23303452.085      -17375.0252       1869.059          47.000  
  23998994.730       33071.3352      -3354.098          44.000  
  21498120.142        8791.4432       -841.351          46.000  
  24420013.620       29039.1842      -2997.308          41.000  
  22530112.234      -13644.9562       1489.920          46.000  
  25177790.774      -29629.8862       3347.824          42.000  
  25253642.351       26354.4092      -2895.179          41.000  
  22687850.004       20385.6582      -2001.975          44.000  
  21437374.242        3490.2142       -287.964          48.000  
 80  1 11 20 49 19.4000000  0 10G18G29G20G 4G21G24G 5G10G13G15
  23303380.905      -17748.7492       1868.335          47.000  
  23999122.378       33742.1022      -3354.187          44.000  
  21498151.971        8959.7242       -841.542          46.000  
  24420127.623       29638.6922      -2997.253          41.000  
  22530055.346      -13942.9232       1489.392          46.000  
  25177663.091      -30299.4802       3347.886          42.000  
  25253752.532       26933.4112      -2895.466          41.000  
  26023813.853       -9543.6082       2889.321          35.000  
  22687925.965       20786.0222      -2002.605          44.000  
  21437385.253        3547.8112       -288.026          48.000  
 80  1 11 20 49 19.6000000  0 10G18G29G20G 4G21G24G 5G10G13G15
  23303309.726      -18122.3512       1868.023          47.000  
  23999250.026       34412.9782      -3354.684          44.000  
  21498184.062        9128.1362       -842.436          46.000  
  24420241.974       30238.3282      -2998.337          41.000  
  22529998.738      -14240.7552       1489.374          46.000  
  25177535.914      -30968.9572       3347.552          42.000  
  25253862.642       27512.5212      -2895.694          41.000  
  26023704.789      -10121.4742       2888.249          35.000  
  22688002.397       21186.5182      -2003.095          44.000  
  21437395.950        3605.5362       -288.770          48.000  
 80  1 11 20 49 19.8000000  0 10G18G29G20G 4G21G24G 5G10G13G15
  23303238.511      -18495.8972       1867.145          47.000  
  23999377.884       35083.9412      -3355.479          44.000  
  21498216.293        9296.6262       -842.842          46.000  
  24420356.185       30838.0162      -2998.801          41.000  
  22529942.129      -14538.5252       1488.764          46.000  
  25177408.544      -31638.3932       3347.295          42.000  
  25253972.788       28091.6992      -2895.949          41.000  
  26023595.690      -10699.2292       2889.038          35.000  
  22688078.532       21587.1302      -2003.511          44.000  
  21437406.943        3663.3652       -289.014          48.000  
 80  1 11 20 49 20.0000000  0 10G18G29G20G 4G21G24G 5G10G13G15
  23303167.594      -18869.3182       1867.320          47.000  
  23999505.637       35755.0172      -3355.083          44.000  
  21498248.471        9465.2222       -842.951          46.000  
  24420470.170       31437.8292      -2999.667          41.000  
  22529885.328      -14836.1722       1488.429          46.000  
  25177281.140      -32307.7222       3346.161          42.000  
  25254083.143       28670.9812      -2896.270          41.000  
  26023485.719      -11276.9092       2887.796          35.000  
  22688154.755       21987.8332      -2003.508          44.000  
  21437418.111        3721.3012       -289.831          47.000  
 80  1 11 20 49 20.2000000  0 10G18G29G20G 4G21G24G 5G10G13G15
  23303096.676      -19242.7032       1866.933          47.000  
  23999633.128       36426.1182      -3355.705          44.000  
  21498280.719        9633.8682       -843.489          46.000  
  24420584.591       32037.6812      -3000.632          41.000  
  22529828.737      -15133.7612       1487.954          46.000  
  25177153.753      -32976.9932       3346.649          42.000  
  25254193.254       29250.2952      -2896.923          41.000  
  26023376.149      -11854.5432       2888.668          35.000  
  22688231.082       22388.6062      -2004.255          44.000  
  21437428.983        3779.3072       -290.617          48.000  
 80  1 11 20 49 20.4000000  0 10G18G29G20G 4G21G24G 5G10G13G15
  23303025.601      -19615.9952       1866.095          47.000  
  23999761.091       37097.3422      -3356.399          44.000  
  21498312.845        9802.6242       -844.123          46.000  
  24420698.593       32637.6412      -2999.796          41.000  
  22529772.321      -15431.2562       1487.297          46.000  
  25177026.559      -33646.1872       3345.532          42.000  
  25254303.679       29829.7052      -2897.030          41.000  
  26023266.632      -12432.0802       2887.668          35.000  
  22688307.549       22789.4852      -2004.633          44.000  
  21437439.767        3837.4292       -290.609          48.000  
 80  1 11 20 49 20.6000000  0 10G18G29G20G 4G21G24G 5G10G13G15
  23302954.509      -19989.2142       1866.181          47.000  
  23999888.739       37768.6242      -3356.374          44.000  
  21498344.901        9971.4602       -844.317          46.000  
  24420812.770       33237.6842      -3000.128          41.000  
  22529715.555      -15728.6652       1487.466          46.000  
  25176899.539      -34315.2992       3345.928          42.000  
  25254413.807       30409.1752      -2897.211          41.000  
  26023155.509      -13009.5632       2887.342          35.000  
  22688383.789       23190.4582      -2004.728          44.000  
  21437450.935        3895.6492       -291.041          47.000  
 80  1 11 20 49 20.8000000  0 10G18G29G20G 4G21G24G 5G10G13G15
  23302883.364      -20362.3762       1865.448          47.000  
  24000016.666       38439.9632      -3356.635          44.000  
  21498377.183       10140.3492       -844.852          46.000  
  24420927.069       33837.7822      -3001.265          41.000  
  22529659.051      -16026.0222       1486.489          46.000  
  25176772.204      -34984.3902       3345.495          42.000  
  25254524.005       30988.6872      -2897.938          41.000  
  26023045.781      -13586.9762       2888.456          35.000  
  22688460.185       23591.4922      -2005.440          44.000  
  21437462.085        3953.9232       -291.871          47.000  
 80  1 11 20 49 21.0000000  0 10G18G29G20G 4G21G24G 5G10G13G15
  23302812.446      -20735.4812       1865.341          47.000  
  24000144.419       39111.3552      -3357.293          44.000  
  21498409.082       10309.3072       -845.122          46.000  
  24421041.472       34437.9272      -3000.989          41.000  
  22529602.303      -16323.2942       1485.952          46.000  
  25176644.887      -35653.4052       3345.213          41.000  
  25254634.657       31568.2742      -2898.829          41.000  
  26022935.478      -14164.3682       2886.679          35.000  
  22688536.425       23992.5812      -2006.508          44.000  
  21437472.747        4012.2872       -292.493          47.000  
 80  1 11 20 49 21.2000000  0 10G18G29G20G 4G21G24G 5G10G13G15
  23302741.319      -21108.4762       1865.131          47.000  
  24000271.823       39782.8712      -3358.427          44.000  
  21498441.260       10478.3752       -845.255          46.000  
  24421155.614       35038.1822      -3001.593          41.000  
  22529545.991      -16620.4612       1485.559          46.000  
  25176517.623      -36322.3282       3344.223          42.000  
  25254744.837       32147.9482      -2898.797          41.000  
  26022825.699      -14741.6552       2886.531          35.000  
  22688613.171       24393.8222      -2006.116          44.000  
  21437484.177        4070.7762       -292.297          47.000  
 80  1 11 20 49 21.4000000  0 10G18G29G20G 4G21G24G 5G10G13G15
  23302670.541      -21481.4232       1864.446          47.000  
  24000399.960       40454.4672      -3357.872          44.000  
  21498473.456       10647.5072       -845.921          46.000  
  24421269.721       35638.5252      -3001.977          41.000  
  22529489.504      -16917.5812       1484.905          45.000  
  25176390.341      -36991.1892       3344.074          42.000  
  25254854.983       32727.6802      -2899.547          41.000  
  26022716.618      -15318.8742       2885.474          35.000  
  22688689.376       24795.1022      -2006.962          43.000  
  21437495.328        4129.3412       -293.139          47.000  
 80  1 11 20 49 21.6000000  0 10G18G29G20G 4G21G24G 5G10G13G15
  23302599.693      -21854.2522       1864.024          47.000  
  24000527.818       41126.1542      -3358.218          44.000  
  21498505.983       10816.7652       -846.432          46.000  
  24421383.549       36239.0002      -3002.433          41.000  
  22529433.018      -17214.5532       1484.657          45.000  
  25176263.146      -37659.9342       3343.995          42.000  
  25254965.199       33307.5292      -2899.705          41.000  
  26022607.222      -15895.9742       2885.548          36.000  
  22688765.878       25196.5492      -2007.148          44.000  
  21437506.426        4188.0382       -293.779          47.000  
 80  1 11 20 49 21.8000000  0 10G18G29G20G 4G21G24G 5G10G13G15
  23302528.636      -22226.9942       1863.576          47.000  
  24000655.518       41797.9322      -3358.716          44.000  
  21498538.335       10986.1042       -847.193          46.000  
  24421497.760       36839.5382      -3002.867          41.000  
  22529376.496      -17511.4582       1484.310          46.000  
  25176135.777      -38328.6092       3342.857          42.000  
  25255075.641       33887.4322      -2899.978          41.000  
  26022496.500      -16473.0092       2884.790          36.000  
  22688842.362       25598.0772      -2007.649          44.000  
  21437517.332        4246.8282       -294.235          47.000  
 80  1 11 20 49 22.0000000  0 10G18G29G20G 4G21G24G 5G10G13G15
  23302457.526      -22599.6832       1863.087          47.000  
  24000782.974       42469.7672      -3359.780          44.000  
  21498570.514       11155.5242       -847.247          46.000  
  24421611.850       37440.1372      -3003.379          41.000  
  22529319.940      -17808.2772       1483.722          46.000  
  25176008.460      -38997.2102       3343.183          42.000  
  25255185.787       34467.4102      -2899.639          41.000  
  26022386.721      -17050.0122       2884.217          36.000  
  22688918.759       25999.6642      -2008.712          44.000  
  21437528.745        4305.7012       -294.411          47.000  
 80  1 11 20 49 22.2000000  0 10G18G29G20G 4G21G24G 5G10G13G15
  23302386.643      -22972.2742       1862.832          47.000  
  24000910.745       43141.7112      -3359.632          44.000  
  21498602.622       11325.0282       -847.987          46.000  
  24421726.253       38040.8432      -3003.634          41.000  
  22529263.471      -18105.0062       1483.186          46.000  
  25175881.283      -39665.7252       3342.480          42.000  
  25255296.212       35047.4832      -2900.321          41.000  
  26022276.436      -17626.8702       2883.749          36.000  
  22688995.366       26401.3662      -2009.315          44.000  
  21437540.122        4364.6912       -295.060          47.000  
 80  1 11 20 49 22.4000000  0 10G18G29G20G 4G21G24G 5G10G13G15
  23302315.568      -23344.8162       1862.642          47.000  
  24001038.777       43813.7042      -3360.396          44.000  
  21498635.027       11494.5882       -847.881          46.000  
  24421840.465       38641.6152      -3003.541          41.000  
  22529207.090      -18401.6602       1483.474          45.000  
  25175753.844      -40334.2122       3342.189          42.000  
  25255406.794       35627.5892      -2900.557          41.000  
  26022166.656      -18203.7022       2884.840          36.000  
  22689071.606       26803.1442      -2008.974          44.000  
  21437551.273        4423.7422       -295.471          47.000  
 80  1 11 20 49 22.6000000  0 10G18G29G20G 4G21G24G 5G10G13G15
  23302244.633      -23717.2632       1862.396          47.000  
  24001166.722       44485.7962      -3360.976          44.000  
  21498667.327       11664.2742       -848.386          46.000  
  24421954.834       39242.4582      -3004.404          41.000  
  22529150.534      -18698.2172       1482.455          45.000  
  25175626.876      -41002.5852       3342.102          43.000  
  25255517.219       36207.8142      -2900.841          41.000  
  26022056.999      -18780.4482       2884.080          36.000  
  22689148.264       27205.0242      -2009.811          45.000  
  21437562.633        4482.9112       -296.092          47.000  
 80  1 11 20 49 22.8000000  0 10G18G29G20G 4G21G24G 5G10G13G15
  23302173.593      -24089.6562       1861.541          47.000  
  24001294.667       45157.9412      -3360.800          44.000  
  21498699.488       11834.0002       -848.576          46.000  
  24422069.516       39843.3772      -3004.283          41.000  
  22529094.099      -18994.7272       1482.188          45.000  
  25175499.594      -41670.9172       3341.729          43.000  
  25255627.905       36788.0562      -2901.005          41.000  
  26021947.167      -19357.1812       2882.713          36.000  
  22689224.731       27606.9672      -2010.067          45.000  
  21437573.783        4542.1592       -296.452          47.000  
 80  1 11 20 49 23.0000000  0 10G18G29G20G 4G21G24G 5G10G13G15
  23302102.780      -24461.9642       1861.249          47.000  
  24001422.298       45830.1992      -3361.265          44.000  
  21498731.718       12003.8382       -849.513          46.000  
  24422183.640       40444.3782      -3004.472          41.000  
  22529037.648      -19291.1202       1481.703          45.000  
  25175372.434      -42339.1632       3340.772          43.000  
  25255738.469       37368.3842      -2901.943          41.000  
  26021837.510      -19933.7582       2883.165          36.000  
  22689301.215       28009.0082      -2010.832          45.000  
  21437585.091        4601.5142       -297.151          47.000  
 80  1 11 20 49 23.2000000  0 10G18G29G20G 4G21G24G 5G10G13G15
  23302031.915      -24834.1702       1861.010          47.000  
  24001550.330       46502.5262      -3361.993          44.000  
  21498764.071       12173.7642       -849.807          46.000  
  24422298.062       41045.4952      -3005.437          41.000  
  22528980.952      -19587.4232       1481.185          45.000  
  25175245.309      -43007.3132       3341.063          43.000  
  25255849.086       37948.7982      -2902.067          41.000  
  26021727.992      -20510.2812       2881.716          36.000  
  22689377.926       28411.1652      -2010.838          45.000  
  21437596.521        4660.9802       -297.446          47.000  
 80  1 11 20 49 23.4000000  0 10G18G29G20G 4G21G24G 5G10G13G15
  23301960.910      -25206.3152       1860.861          47.000  
  24001677.996       47174.9242      -3361.722          44.000  
  21498796.179       12343.7652       -850.168          46.000  
  24422412.709       41646.6532      -3006.565          41.000  
  22528924.448      -19883.6562       1480.672          45.000  
  25175118.080      -43675.4182       3340.688          43.000  
  25255959.668       38529.2692      -2902.943          41.000  
  26021618.457      -21086.7582       2880.018          36.000  
  22689454.323       28813.4032      -2011.549          45.000  
  21437607.689        4720.5222       -297.939          47.000  
 80  1 11 20 49 23.6000000  0 10G18G29G20G 4G21G24G 5G10G13G15
  23301889.957      -25578.4002       1860.039          47.000  
  24001805.836       47847.4032      -3362.562          44.000  
  21498828.585       12513.8382       -850.362          46.000  
  24422527.043       42247.9252      -3006.374          41.000  
  22528868.154      -20179.8092       1480.011          45.000  
  25174990.815      -44343.4452       3340.012          42.000  
  25256070.181       39109.8332      -2902.235          42.000  
  26021508.800      -21663.1392       2883.927          36.000  
  22689531.104       29215.7132      -2012.244          45.000  
  21437619.136        4780.1592       -298.267          47.000  
 80  1 11 20 49 23.8000000  0 10G18G29G20G 4G21G24G 5G10G13G15
  23301819.196      -25950.4672       1860.060          47.000  
  24001933.850       48519.8872      -3362.603          44.000  
  21498861.059       12683.9272       -850.871          46.000  
  24422641.621       42849.1902      -3005.987          41.000  
  22528811.894      -20475.9402       1480.425          45.000  
  25174863.934      -45011.4602       3339.843          42.000  
  25256180.588       39690.3972      -2902.878          42.000  
  26021399.160      -22239.5572       2881.932          36.000  
  22689607.728       29618.0712      -2011.699          45.000  
  21437630.304        4839.8162       -298.571          47.000  
 80  1 11 20 49 24.0000000  0 10G18G29G20G 4G21G24G 5G10G13G15
  23301748.697      -26322.4262       1859.695          47.000  
  24002061.795       49192.4842      -3363.096          44.000  
  21498893.394       12854.1282       -851.044          46.000  
  24422756.304       43450.5712      -3007.125          41.000  
  22528755.547      -20771.9602       1479.912          45.000  
  25174736.966      -45679.3772       3339.104          42.000  
  25256291.065       40271.0392      -2902.896          42.000  
  26021289.398      -22815.8352       2880.392          36.000  
  22689684.352       30020.5262      -2012.526          45.000  
  21437641.664        4899.6032       -299.305          47.000  
 80  1 11 20 49 24.2000000  0 10G18G29G20G 4G21G24G 5G10G13G15
  23301677.780      -26694.3492       1859.490          47.000  
  24002189.531       49865.1202      -3363.629          44.000  
  21498925.904       13024.3642       -851.251          46.000  
  24422870.899       44051.9992      -3007.325          41.000  
  22528699.218      -21067.9452       1480.011          45.000  
  25174609.719      -46347.2872       3339.614          42.000  
  25256401.316       40851.7272      -2903.564          42.000  
  26021179.968      -23392.0722       2881.959          36.000  
  22689760.731       30423.0312      -2012.819          45.000  
  21437652.989        4959.4372       -299.158          47.000  
 80  1 11 20 49 24.4000000  0 10G18G29G20G 4G21G24G 5G10G13G15
  23301607.176      -27066.2192       1859.212          47.000  
  24002317.685       50537.8232      -3363.769          44.000  
  21498958.169       13194.6902       -851.653          46.000  
  24422985.321       44653.4882      -3007.293          41.000  
  22528642.819      -21363.8572       1479.001          45.000  
  25174482.507      -47015.0942       3339.245          42.000  
  25256511.898       41432.4892      -2903.482          42.000  
  26021070.276      -23968.3182       2880.377          36.000  
  22689837.198       30825.6232      -2013.403          45.000  
  21437664.541        5019.3582       -299.710          47.000  
 80  1 11 20 49 24.6000000  0 10G18G29G20G 4G21G24G 5G10G13G15
  23301536.380      -27438.0072       1858.695          47.000  
  24002445.770       51210.6022      -3364.699          43.000  
  21498990.627       13365.0722       -852.415          46.000  
  24423100.125       45255.0512      -3008.131          41.000  
  22528586.838      -21659.6812       1478.765          45.000  
  25174355.417      -47682.8472       3338.508          42.000  
  25256622.706       42013.2772      -2904.552          41.000  
  26020960.758      -24544.4152       2880.354          36.000  
  22689913.962       31228.3042      -2014.020          45.000  
  21437676.233        5079.3782       -300.391          47.000  
 80  1 11 20 49 24.8000000  0 10G18G29G20G 4G21G24G 5G10G13G15
  23301465.776      -27809.7402       1858.430          47.000  
  24002573.767       51883.4292      -3364.344          43.000  
  21499022.874       13535.5422       -852.381          46.000  
  24423214.249       45856.6722      -3008.406          41.000  
  22528530.753      -21955.4392       1478.681          45.000  
  25174228.222      -48350.5412       3338.398          42.000  
  25256733.026       42594.1602      -2904.124          41.000  
  26020851.258      -25120.4802       2880.774          36.000  
  22689990.568       31631.0562      -2013.878          45.000  
  21437687.662        5139.4692       -300.974          47.000  
 80  1 11 20 49 25.0000000  0 10G18G29G20G 4G21G24G 5G10G13G15
  23301395.103      -28181.4092       1858.066          47.000  
  24002701.660       52556.3602      -3364.736          43.000  
  21499055.192       13706.0712       -853.216          46.000  
  24423328.583       46458.3772      -3008.520          41.000  
  22528474.301      -22251.1192       1478.085          45.000  
  25174101.289      -49018.1732       3338.057          42.000  
  25256843.626       43175.0892      -2904.662          41.000  
  26020741.775      -25696.4802       2880.827          36.000  
  22690067.366       32033.9002      -2014.570          45.000  
  21437699.092        5199.6402       -301.504          47.000  
 80  1 11 20 49 25.2000000  0 10G18G29G20G 4G21G24G 5G10G13G15
  23301324.377      -28552.9772       1857.657          47.000  
  24002829.570       53229.3692      -3365.033          43.000  
  21499087.754       13876.7172       -853.654          46.000  
  24423443.092       47060.1772      -3009.295          41.000  
  22528418.007      -22546.7062       1477.421          45.000  
  25173974.357      -49685.7092       3338.317          42.000  
  25256954.033       43756.1062      -2904.950          41.000  
  26020631.996      -26272.4342       2879.219          36.000  
  22690144.112       32436.8392      -2014.980          45.000  
  21437710.383        5259.9372       -301.615          47.000  
 80  1 11 20 49 25.4000000  0 10G18G29G20G 4G21G24G 5G10G13G15
  23301253.460      -28924.4822       1857.284          47.000  
  24002957.707       53902.4482      -3365.704          43.000  
  21499120.334       14047.4172       -853.248          46.000  
  24423557.879       47662.0382      -3008.791          41.000  
  22528361.852      -22842.2212       1477.440          45.000  
  25173847.511      -50353.1932       3337.619          42.000  
  25257064.476       44337.1972      -2906.053          41.000  
  26020522.338      -26848.2882       2879.238          35.000  
  22690220.701       32839.8572      -2015.078          45.000  
  21437722.074        5320.3172       -301.891          47.000  
 80  1 11 20 49 25.6000000  0 10G18G29G20G 4G21G24G 5G10G13G15
  23301182.612      -29295.9482       1857.314          47.000  
  24003086.193       54575.5522      -3365.909          43.000  
  21499153.036       14218.1662       -854.312          46.000  
  24423672.353       48263.9432      -3010.203          41.000  
  22528305.907      -23137.6812       1477.188          45.000  
  25173720.438      -51020.6412       3336.722          42.000  
  25257174.883       44918.3072      -2905.297          41.000  
  26020412.803      -27424.1322       2878.820          35.000  
  22690297.412       33242.9202      -2015.460          45.000  
  21437733.522        5380.7372       -302.191          47.000  
 80  1 11 20 49 25.8000000  0 10G18G29G20G 4G21G24G 5G10G13G15
  23301112.008      -29667.3342       1856.765          47.000  
  24003214.259       55248.7702      -3366.019          43.000  
  21499185.388       14389.0072       -854.321          46.000  
  24423786.895       48865.9412      -3010.840          41.000  
  22528249.595      -23433.0532       1476.933          45.000  
  25173593.331      -51688.0052       3336.880          42.000  
  25257285.273       45499.4952      -2906.395          41.000  
  26020303.320      -27999.8712       2878.713          35.000  
  22690374.298       33646.0982      -2015.852          45.000  
  21437745.038        5441.2672       -302.838          47.000  
 80  1 11 20 49 26.0000000  0 10G18G29G20G 4G21G24G 5G10G13G15
  23301041.526      -30038.6422       1856.256          47.000  
  24003342.379       55922.0492      -3366.692          44.000  
  21499218.020       14559.9282       -855.144          46.000  
  24423901.788       49468.0202      -3011.305          41.000  
  22528193.370      -23728.3472       1475.887          45.000  
  25173466.415      -52355.3032       3336.093          42.000  
  25257395.907       46080.7482      -2907.242          41.000  
  26020193.663      -28575.5522       2878.981          35.000  
  22690451.236       34049.3542      -2016.393          45.000  
  21437756.486        5501.8952       -303.517          47.000  
 80  1 11 20 49 26.2000000  0 10G18G29G20G 4G21G24G 5G10G13G15
  23300971.167      -30409.8532       1855.927          47.000  
  24003470.568       56595.4382      -3366.675          44.000  
  21499250.460       14730.9752       -854.644          46.000  
  24424016.436       50070.2102      -3010.851          41.000  
  22528137.110      -24023.5302       1475.815          45.000  
  25173339.657      -53022.5062       3335.423          42.000  
  25257506.646       46662.1082      -2907.232          41.000  
  26020083.901      -29151.1402       2877.241          35.000  
  22690527.842       34452.7162      -2016.969          45.000  
  21437768.020        5562.6382       -304.052          47.000  
 80  1 11 20 49 26.4000000  0 10G18G29G20G 4G21G24G 5G10G13G15
  23300900.389      -30781.0622       1855.766          47.000  
  24003598.897       57268.8242      -3366.662          44.000  
  21499283.057       14902.0122       -855.510          46.000  
  24424130.909       50672.4002      -3010.824          41.000  
  22528080.868      -24318.6872       1475.785          45.000  
  25173212.357      -53689.6902       3336.224          42.000  
  25257617.508       47243.4592      -2906.426          41.000  
  26019974.331      -29726.7462       2876.757          35.000  
  22690604.449       34856.0982      -2017.276          45.000  
  21437779.729        5623.4022       -304.090          47.000  
 80  1 11 20 49 26.6000000  0 10G18G29G20G 4G21G24G 5G10G13G15
  23300829.768      -31152.1962       1855.459          47.000  
  24003727.174       57942.2842      -3367.136          44.000  
  21499315.793       15073.1282       -855.763          46.000  
  24424245.714       51274.6872      -3010.791          41.000  
  22528024.836      -24613.7902       1474.697          45.000  
  25173085.512      -54356.8242       3336.004          42.000  
  25257728.247       47824.8842      -2906.875          41.000  
  26019864.569      -30302.2492       2877.141          35.000  
  22690681.229       35259.5792      -2017.545          45.000  
  21437791.229        5684.2652       -304.284          47.000  
 80  1 11 20 49 26.8000000  0 10G18G29G20G 4G21G24G 5G10G13G15
  23300759.164      -31523.2652       1855.124          47.000  
  24003855.485       58615.8262      -3368.211          44.000  
  21499348.320       15244.3272       -856.220          46.000  
  24424360.362       51877.0042      -3012.368          41.000  
  22527968.663      -24908.8022       1474.634          45.000  
  25172958.648      -55023.8992       3335.012          42.000  
  25257838.898       48406.3682      -2908.337          41.000  
  26019755.139      -30877.6892       2876.268          35.000  
  22690758.080       35663.1402      -2018.492          45.000  
  21437803.008        5745.2042       -304.817          47.000  
 80  1 11 20 49 27.0000000  0 10G18G29G20G 4G21G24G 5G10G13G15
  23300688.700      -31894.2632       1854.735          47.000  
  24003983.534       59289.4302      -3367.812          44.000  
  21499380.778       15415.5922       -856.350          46.000  
  24424474.922       52479.4032      -3011.938          41.000  
  22527912.264      -25203.7422       1474.738          45.000  
  25172831.593      -55690.8952       3335.460          42.000  
  25257949.550       48987.9072      -2907.832          41.000  
  26019645.586      -31453.1032       2877.861          35.000  
  22690834.791       36066.7742      -2018.461          45.000  
  21437814.403        5806.2342       -304.886          47.000  
 80  1 11 20 49 27.2000000  0 10G18G29G20G 4G21G24G 5G10G13G15
  23300618.149      -32265.2172       1854.376          47.000  
  24004111.915       59963.0872      -3368.551          44.000  
  21499413.287       15586.9142       -856.713          46.000  
  24424589.518       53081.8742      -3012.422          41.000  
  22527856.196      -25498.6232       1474.479          45.000  
  25172704.730      -56357.8392       3334.698          42.000  
  25258060.115       49569.5082      -2908.491          41.000  
  26019536.016      -32028.3992       2877.536          35.000  
  22690911.642       36470.4742      -2018.248          45.000  
  21437826.234        5867.3312       -305.710          47.000  
 80  1 11 20 49 27.4000000  0 10G18G29G20G 4G21G24G 5G10G13G15
  23300547.301      -32636.1232       1853.604          47.000  
  24004240.122       60636.8052      -3368.953          44.000  
  21499446.041       15758.2992       -857.278          46.000  
  24424704.305       53684.3892      -3012.530          41.000  
  22527800.234      -25793.4492       1473.828          45.000  
  25172577.815      -57024.7422       3334.237          42.000  
  25258170.627       50151.1522      -2908.641          41.000  
  26019426.464      -32603.6992       2876.484          35.000  
  22690988.458       36874.2352      -2018.802          45.000  
  21437837.734        5928.4892       -306.406          47.000  
 80  1 11 20 49 27.6000000  0 10G18G29G20G 4G21G24G 5G10G13G15
  23300476.802      -33006.9542       1854.107          47.000  
  24004368.695       61310.5872      -3369.056          44.000  
  21499478.569       15929.7492       -857.500          46.000  
  24424818.796       54286.9732      -3012.766          41.000  
  22527743.817      -26088.1962       1473.914          45.000  
  25172450.987      -57691.5802       3334.196          42.000  
  25258281.052       50732.8412      -2908.709          41.000  
  26019316.667      -33178.9522       2877.429          35.000  
  22691065.134       37278.0832      -2018.890          45.000  
  21437849.041        5989.7442       -306.150          47.000  
 80  1 11 20 49 27.8000000  0 10G18G29G20G 4G21G24G 5G10G13G15
  23300406.286      -33377.7522       1853.807          47.000  
  24004496.710       61984.4052      -3369.932          44.000  
  21499511.427       16101.2452       -857.605          46.000  
  24424933.252       54889.6182      -3013.348          41.000  
  22527687.819      -26382.9072       1473.387          45.000  
  25172323.687      -58358.3952       3333.651          42.000  
  25258392.053       51314.5832      -2909.080          41.000  
  26019207.237      -33754.1432       2876.579          35.000  
  22691142.072       37681.9782      -2020.363          44.000  
  21437860.541        6051.0422       -307.100          47.000  
 80  1 11 20 49 28.0000000  0 10G18G29G20G 4G21G24G 5G10G13G15
  23300335.821      -33748.4762       1853.105          47.000  
  24004624.742       62658.3232      -3369.926          44.000  
  21499544.129       16272.8302       -858.291          46.000  
  24425047.952       55492.3442      -3013.616          41.000  
  22527632.048      -26677.5272       1472.524          45.000  
  25172197.051      -59025.1152       3333.810          42.000  
  25258503.018       51896.4082      -2908.957          41.000  
  26019097.876      -34329.2962       2874.500          35.000  
  22691218.538       38085.9832      -2020.578          44.000  
  21437872.005        6112.4622       -307.347          47.000  
 80  1 11 20 49 28.2000000  0 10G18G29G20G 4G21G24G 5G10G13G15
  23300265.165      -34119.0852       1853.763          47.000  
  24004753.123       63332.3332      -3369.650          44.000  
  21499576.726       16444.5152       -858.081          46.000  
  24425162.582       56095.1632      -3013.586          41.000  
  22527575.754      -26972.0372       1473.205          45.000  
  25172070.571      -59691.7452       3334.404          42.000  
  25258613.932       52478.2882      -2909.592          41.000  
  26018988.585      -34904.3262       2875.376          35.000  
  22691295.686       38490.0912      -2020.368          44.000  
  21437883.680        6173.9742       -307.742          47.000  
 80  1 11 20 49 28.4000000  0 10G18G29G20G 4G21G24G 5G10G13G15
  23300194.789      -34489.6952       1852.608          47.000  
  24004881.313       64006.3432      -3370.378          44.000  
  21499609.480       16616.2142       -858.986          46.000  
  24425277.300       56697.9892      -3014.599          41.000  
  22527519.808      -27266.5322       1471.961          45.000  
  25171943.796      -60358.3812       3332.085          42.000  
  25258724.793       53060.2022      -2909.926          41.000  
  26018879.260      -35479.3682       2875.689          35.000  
  22691372.641       38894.2032      -2021.259          44.000  
  21437895.598        6235.5232       -308.321          47.000  
 80  1 11 20 49 28.6000000  0 10G18G29G20G 4G21G24G 5G10G13G15
  23300124.464      -34860.2212       1852.773          47.000  
  24005009.694       64680.4662      -3370.192          44.000  
  21499642.077       16788.0232       -858.992          46.000  
  24425392.140       57300.9322      -3014.507          41.000  
  22527463.723      -27560.9362       1471.835          45.000  
  25171816.985      -61024.9202       3332.452          42.000  
  25258835.270       53642.1962      -2910.255          41.000  
  26018769.916      -36054.3362       2873.577          35.000  
  22691449.492       39298.4452      -2021.160          44.000  
  21437907.464        6297.1832       -308.596          47.000  
 80  1 11 20 49 28.8000000  0 10G18G29G20G 4G21G24G 5G10G13G15
  23300054.018      -35230.6992       1852.684          47.000  
  24005138.180       65354.6092      -3369.955          44.000  
  21499674.761       16959.8612       -859.357          46.000  
  24425506.893       57903.8962      -3013.888          41.000  
  22527407.673      -27855.2822       1471.876          45.000  
  25171690.104      -61691.4412       3332.619          42.000  
  25258946.062       54224.2022      -2909.683          41.000  
  26018660.539      -36629.2382       2873.618          35.000  
  22691526.168       39702.7382      -2021.878          44.000  
  21437919.226        6358.8952       -308.472          47.000  
 80  1 11 20 49 29.0000000  0 10G18G29G20G 4G21G24G 5G10G13G15
  23299983.518      -35601.1862       1851.901          47.000  
  24005266.159       66028.7522      -3370.853          44.000  
  21499707.288       17131.7172       -859.681          46.000  
  24425621.523       58506.8742      -3014.978          41.000  
  22527351.413      -28149.6352       1471.440          45.000  
  25171563.066      -62357.9462       3332.463          42.000  
  25259056.800       54806.2332      -2910.167          41.000  
  26018551.125      -37204.1162       2875.607          35.000  
  22691602.844       40107.0182      -2021.673          44.000  
  21437931.283        6420.6252       -309.118          47.000  
 80  1 11 20 49 29.2000000  0 10G18G29G20G 4G21G24G 5G10G13G15
  23299912.932      -35971.5922       1851.659          47.000  
  24005394.506       66702.9912      -3370.847          44.000  
  21499739.972       17303.6502       -859.911          46.000  
  24425736.101       59109.9262      -3015.596          41.000  
  22527295.363      -28443.9032       1471.018          45.000  
  25171436.238      -63024.3832       3332.258          42.000  
  25259167.557       55388.3182      -2911.048          41.000  
  26018441.835      -37778.9842       2874.180          35.000  
  22691680.026       40511.4072      -2022.576          44.000  
  21437942.800        6482.4532       -309.359          47.000  
 80  1 11 20 49 29.4000000  0 10G18G29G20G 4G21G24G 5G10G13G15
  23299842.608      -36341.9402       1851.267          47.000  
  24005522.904       67377.2822      -3371.509          44.000  
  21499772.935       17475.6542       -860.359          46.000  
  24425850.958       59713.0702      -3015.729          41.000  
  22527239.348      -28738.0922       1470.709          45.000  
  25171309.288      -63690.7462       3332.302          42.000  
  25259277.999       55970.4672      -2910.907          41.000  
  26018332.334      -38353.7782       2873.783          35.000  
  22691756.825       40915.8692      -2023.597          44.000  
  21437954.370        6544.3512       -309.993          47.000  
 80  1 11 20 49 29.6000000  0 10G18G29G20G 4G21G24G 5G10G13G15
  23299772.109      -36712.2422       1850.895          47.000  
  24005651.111       68051.6342      -3372.297          44.000  
  21499805.724       17647.7072       -860.661          46.000  
  24425965.728       60316.2082      -3016.850          41.000  
  22527183.717      -29032.2382       1470.279          45.000  
  25171182.320      -64357.1112       3330.811          41.000  
  25259388.808       56552.6552      -2911.784          41.000  
  26018222.625      -38928.5032       2873.684          35.000  
  22691834.094       41320.4032      -2022.607          44.000  
  21437966.201        6606.3152       -310.172          47.000  
 80  1 11 20 49 29.8000000  0 10G18G29G20G 4G21G24G 5G10G13G15
  23299701.767      -37082.4572       1850.733          47.000  
  24005779.405       68726.0912      -3372.521          44.000  
  21499838.618       17819.8642       -860.588          46.000  
  24426080.359       60919.4942      -3016.997          41.000  
  22527127.666      -29326.2792       1470.034          45.000  
  25171055.701      -65023.3592       3331.497          41.000  
  25259499.792       57134.9452      -2911.484          41.000  
  26018113.090      -39503.1522       2872.488          35.000  
  22691911.207       41725.0262      -2022.839          44.000  
  21437978.381        6668.4082       -310.320          47.000  
 80  1 11 20 49 30.0000000  0 10G18G29G20G 4G21G24G 5G10G13G15
  23299631.093      -37452.6122       1850.947          47.000  
  24005907.838       69400.5782      -3372.353          44.000  
  21499871.232       17992.0732       -860.985          46.000  
  24426195.024       61522.8292      -3016.356          41.000  
  22527071.633      -29620.2572       1469.960          45.000  
  25170929.082      -65689.5732       3330.526          41.000  
  25259610.617       57717.2612      -2911.724          41.000  
  26018003.781      -40077.8072       2872.255          35.000  
  22691988.022       42129.7042      -2023.840          44.000  
  21437990.108        6730.5452       -310.769          47.000  
 80  1 11 20 49 30.2000000  0 10G18G29G20G 4G21G24G 5G10G13G15
  23299561.083      -37822.717        1850.480          47.000  
  24006036.377       70074.612       -3372.407          44.000  
  21499904.196       18164.335        -861.176          46.000  
  24426309.794       62125.686       -3016.657          41.000  
  22527015.758      -29914.184        1469.022          45.000  
  25170802.167      -66356.236        3330.744          41.000  
  25259721.531       58299.611       -2911.699          41.000  
  26017894.194      -40652.3672       2872.497          35.000  
  22692065.048       42533.952       -2023.740          44.000  
  21438002.305        6792.257        -311.176          47.000  
 80  1 11 20 49 30.4000000  0 10G18G29G20G 4G21G24G 5G10G13G15
  23299490.514      -38192.803        1849.992          47.000  
  24006165.212       70749.184       -3373.777          44.000  
  21499937.002       18336.644        -861.947          46.000  
  24426424.913       62729.107       -3017.139          41.000  
  22526959.690      -30208.084        1468.620          45.000  
  25170675.216      -67022.361        3329.440          41.000  
  25259832.200       58882.008       -2912.631          41.000  
  26017784.973      -41226.8662       2873.205          35.000  
  22692142.090       42938.773       -2024.763          44.000  
  21438014.137        6854.530        -312.371          47.000  
 80  1 11 20 49 30.6000000  0 10G18G29G20G 4G21G24G 5G10G13G15
  23299420.155      -38562.804        1850.004          47.000  
  24006293.244       71423.846       -3373.947          44.000  
  21499969.564       18509.021        -862.416          46.000  
  24426539.718       63332.581       -3017.925          41.000  
  22526903.780      -30501.882        1468.623          45.000  
  25170548.318      -67688.414        3329.920          41.000  
  25259943.079       59464.470       -2912.256          41.000  
  26017675.508      -41801.3602       2872.320          35.000  
  22692218.732       43343.656       -2024.052          44.000  
  21438025.985        6916.882        -312.080          47.000  
 80  1 11 20 49 30.8000000  0 10G18G29G20G 4G21G24G 5G10G13G15
  23299349.604      -38932.763        1849.701          47.000  
  24006421.363       72098.558       -3373.337          44.000  
  21500002.318       18681.460        -862.249          46.000  
  24426654.401       63936.137       -3017.099          41.000  
  22526847.747      -30795.634        1469.005          45.000  
  25170421.682      -68354.418        3330.486          41.000  
  25260053.853       60046.986       -2912.823          41.000  
  26017566.235      -42375.7792       2872.122          35.000  
  22692295.914       43748.593       -2025.345          44.000  
  21438037.782        6979.310        -312.483          47.000  
 80  1 11 20 49 31.0000000  0 10G18G29G20G 4G21G24G 5G10G13G15
  23299279.174      -39302.726        1850.002          47.000  
  24006550.023       72773.282       -3373.365          44.000  
  21500034.932       18853.908        -862.778          46.000  
  24426769.188       64539.674       -3017.834          42.000  
  22526791.958      -31089.373        1468.474          45.000  
  25170294.749      -69020.438        3330.094          41.000  
  25260164.574       60629.498       -2912.970          41.000  
  26017456.786      -42950.2012       2872.793          35.000  
  22692373.026       44153.559       -2024.952          44.000  
  21438049.560        7041.756        -312.608          47.000  
 80  1 11 20 49 31.2000000  0 10G18G29G20G 4G21G24G 5G10G13G15
  23299208.850      -39672.626        1849.644          47.000  
  24006678.178       73448.040       -3374.139          44.000  
  21500067.704       19026.428        -862.311          46.000  
  24426884.272       65143.321       -3017.657          42.000  
  22526736.275      -31383.040        1468.140          45.000  
  25170168.095      -69686.378        3330.045          41.000  
  25260275.383       61212.046       -2913.370          41.000  
  26017347.513      -43524.5522       2872.804          35.000  
  22692450.051       44558.616       -2024.500          44.000  
  21438061.461        7104.279        -312.370          47.000  
 80  1 11 20 49 31.4000000  0 10G18G29G20G 4G21G24G 5G10G13G15
  23299138.683      -40042.498        1849.354          47.000  
  24006806.419       74122.846       -3374.489          44.000  
  21500100.632       19198.980        -862.831          46.000  
  24426999.147       65746.949       -3017.879          42.000  
  22526680.294      -31676.679        1467.534          45.000  
  25170041.581      -70352.309        3329.034          42.000  
  25260386.175       61794.643       -2913.272          41.000  
  26017238.310      -44098.9312       2870.377          35.000  
  22692527.094       44963.696       -2025.342          44.000  
  21438073.292        7166.854        -312.947          47.000  
 80  1 11 20 49 31.6000000  0 10G18G29G20G 4G21G24G 5G10G13G15
  23299068.236      -40412.295        1848.926          47.000  
  24006934.853       74797.728       -3374.961          44.000  
  21500133.386       19371.595        -863.406          46.000  
  24427114.022       66350.676       -3018.779          42.000  
  22526624.471      -31970.223        1468.369          45.000  
  25169914.997      -71018.167        3329.532          42.000  
  25260497.332       62377.291       -2912.858          41.000  
  26017129.211      -44673.1892       2871.278          35.000  
  22692604.102       45368.856       -2025.386          44.000  
  21438085.438        7229.516        -313.111          47.000  
 80  1 11 20 49 31.8000000  0 10G18G29G20G 4G21G24G 5G10G13G15
  23298997.772      -40782.038        1848.782          47.000  
  24007063.164       75472.681       -3374.997          44.000  
  21500166.385       19544.286        -863.677          46.000  
  24427229.123       66954.466       -3018.827          42.000  
  22526568.630      -32263.734        1467.389          45.000  
  25169788.553      -71683.982        3328.440          42.000  
  25260608.386       62959.982       -2914.229          41.000  
  26017019.938      -45247.4212       2871.665          35.000  
  22692681.319       45774.098       -2026.538          44.000  
  21438097.478        7292.237        -313.828          47.000  
 16 10 14 20 49 32.0000000  0 10G18G29G20G 4G21G24G 5G10G13G15
  23298927.360      -41151.695        1848.145          47.000  
  24007191.685       76147.706       -3375.219          44.000  
  21500199.313       19717.072        -863.924          46.000  
  24427343.649       67558.336       -3019.308          42.000  
  22526512.807      -32557.122        1466.818          45.000  
  25169662.091      -72349.701        3328.356          42.000  
  25260719.177       63542.760       -2914.584          41.000  
  26016910.734      -45821.5662       2871.300          35.000  
  22692758.571       46179.428       -2026.805          44.000  
  21438109.187        7355.085        -314.473          47.000  
 16 10 14 20 49 32.2000000  0 10G18G29G20G 4G21G24G 5G10G13G15
  23298856.966      -41521.305        1848.027          47.000  
  24007320.206       76822.788       -3375.435          44.000  
  21500232.416       19889.915        -864.127          46.000  
  24427458.523       68162.251       -3020.043          41.000  
  22526456.914      -32850.475        1466.553          45.000  
  25169535.280      -73015.393        3328.214          42.000  
  25260830.212       64125.577       -2914.430          41.000  
  26016801.338      -46395.7022       2870.653          35.000  
  22692835.666       46584.818       -2026.788          44.000  
  21438121.350        7417.979        -314.821          47.000  
 16 10 14 20 49 32.4000000  0 10G18G29G20G 4G21G24G 5G10G13G15
  23298786.502      -41890.869        1848.252          47.000  
  24007448.604       77497.905       -3375.133          44.000  
  21500265.222       20062.803        -864.572          46.000  
  24427573.503       68766.228       -3019.601          41.000  
  22526401.038      -33143.763        1466.712          45.000  
  25169408.591      -73681.017        3328.873          42.000  
  25260941.074       64708.423       -2914.260          41.000  
  26016692.100      -46969.7522       2869.006          35.000  
  22692912.813       46990.280       -2026.976          43.000  
  21438133.303        7480.946        -314.650          47.000  
 16 10 14 20 49 32.6000000  0 10G18G29G20G 4G21G24G 5G10G13G15
  23298716.370      -42260.410        1847.767          47.000  
  24007577.352       78173.058       -3376.064          44.000  
  21500297.959       20235.728        -864.494          46.000  
  24427688.447       69370.231       -3020.515          41.000  
  22526345.058      -33437.025        1466.115          45.000  
  25169282.042      -74346.631        3327.556          42.000  
  25261052.005       65291.328       -2914.551          40.000  
  26016583.019      -47543.7702       2871.086          35.000  
  22692990.083       47395.773       -2027.435          43.000  
  21438145.204        7543.969        -314.982          47.000  
 16 10 14 20 49 32.8000000  0 10G18G29G20G 4G21G24G 5G10G13G15
  23298646.237      -42629.849        1847.089          47.000  
  24007705.978       78848.317       -3376.519          44.000  
  21500331.132       20408.743        -865.132          46.000  
  24427803.375       69974.352       -3020.106          41.000  
  22526289.409      -33730.182        1465.789          45.000  
  25169155.424      -75012.165        3327.984          42.000  
  25261162.866       65874.310       -2915.274          40.000  
  26016473.745      -48117.7272       2869.674          35.000  
  22693067.248       47801.387       -2027.864          43.000  
  21438157.454        7607.092        -315.918          47.000  
 16 10 14 20 49 33.0000000  0 10G18G29G20G 4G21G24G 5G10G13G15
  23298575.633      -42999.258        1847.054          47.000  
