     2.10           OBSERVATION DATA    G (GPS)             RINEX VERSION / TYPE
RTKCONV 2.4.2                           20160928 172545 UTC PGM / RUN BY / DATE 
log: C:\Users\macshen\Desktop\exp_924\multipath effect\hp_  COMMENT             
format: u-blox                                              COMMENT             
                                                            MARKER NAME         
                                                            MARKER NUMBER       
                                                            OBSERVER / AGENCY   
                                                            REC # / TYPE / VERS 
                                                            ANT # / TYPE        
   518036.9818 -4696385.1740  4270451.5989                  APPROX POSITION XYZ 
        0.0000        0.0000        0.0000                  ANTENNA: DELTA H/E/N
     1     1                                                WAVELENGTH FACT L1/2
     4    C1    L1    D1    S1                              # / TYPES OF OBSERV 
  2016     9    24    21    39   21.2000000     GPS         TIME OF FIRST OBS   
  2016     9    24    21    54   44.9990000     GPS         TIME OF LAST OBS    
                                                            END OF HEADER       
 16  9 24 21 39 21.2000000  0 10G30G 4G 5G 2G20G24G13G29G15G21
  24898400.651       57525.156        -476.124          39.000  
  22049046.943     1661506.787       -1874.591          48.000  
  22816699.472     2370823.170       -2368.390          43.000  
  24721501.966      116393.504       -2891.150          34.000  
  19952806.626     -409663.462         246.357          47.000  
  25021637.928     -885789.8172       3688.158          29.000  
  20804432.011      204335.154        -510.334          50.000  
  21561142.764     1272755.1212      -2348.280          31.000  
  20200854.875    -1702230.232        1323.764          51.000  
  21747839.328    -2562092.537        2380.057          49.000  
 16  9 24 21 39 21.4000000  0 10G30G 4G 5G 2G20G24G13G29G15G21
  24898418.416       57620.364        -476.084          39.000  
  22049118.490     1661881.700       -1874.624          48.000  
  22816789.690     2371296.767       -2368.250          43.000  
  24721611.659      116971.732       -2890.775          34.000  
  19952797.378     -409712.715         246.220          47.000  
  25021502.620     -886527.5162       3686.746          29.000  
  20804451.486      204437.221        -510.625          50.000  
  21561232.180     1273224.8882      -2347.772          31.000  
  20200804.445    -1702494.931        1323.304          51.000  
  21747748.727    -2562568.576        2380.403          49.000  
 16  9 24 21 39 21.6000000  0 10G30G 4G 5G 2G20G24G13G29G15G21
  24898436.251       57715.596        -476.188          39.000  
  22049189.791     1662256.628       -1874.701          47.000  
  22816879.768     2371770.351       -2367.928          43.000  
  24721721.735      117549.924       -2891.067          34.000  
  19952787.990     -409761.979         245.849          47.000  
  25021357.085     -887265.1862       3687.069          28.000  
  20804470.716      204539.308        -510.828          50.000  
  21561321.281     1273694.6262      -2349.463          31.000  
  20200754.014    -1702759.600        1323.184          51.000  
  21747658.196    -2563044.621        2379.858          49.000  
 16  9 24 21 39 21.8000000  0 10G30G 4G 5G 2G20G24G13G29G15G21
  24898454.015       57810.877        -476.346          39.000  
  22049261.233     1662631.588       -1874.987          47.000  
  22816969.916     2372243.947       -2368.333          43.000  
  24721831.636      118128.173       -2891.583          34.000  
  19952778.776     -409811.202         245.880          47.000  
  25021215.459     -888002.8882       3688.020          29.000  
  20804490.016      204641.442        -510.661          50.000  
  21561410.661     1274164.4452      -2350.825          31.000  
  20200703.652    -1703024.234        1323.098          51.000  
  21747567.524    -2563520.633        2379.961          49.000  
 16  9 24 21 39 22.0000000  0 10G30G 4G 5G 2G20G24G13G29G15G21
  24898471.780       57906.164        -476.297          39.000  
  22049332.570     1663006.557       -1874.607          48.000  
  22817060.169     2372717.538       -2368.474          43.000  
  24721941.678      118706.406       -2891.026          34.000  
  19952769.424     -409860.421         246.177          48.000  
  25021075.579     -888740.5892       3690.008          29.000  
  20804509.491      204743.581        -510.882          50.000  
  21561500.007     1274634.2192      -2348.894          31.000  
  20200653.327    -1703288.859        1323.054          51.000  
  21747477.028    -2563996.640        2380.031          49.000  
 16  9 24 21 39 22.2000000  0 10G30G 4G 5G 2G20G24G13G29G15G21
  24898489.335       58001.463        -476.585          39.000  
  22049403.802     1663381.539       -1875.066          48.000  
  22817150.527     2373191.147       -2367.802          43.000  
  24722051.684      119284.645       -2891.711          34.000  
  19952759.931     -409909.627         246.153          48.000  
  25020939.712     -889478.3612       3688.428          29.000  
  20804528.931      204845.748        -510.722          50.000  
  21561589.352     1275104.0132      -2350.027          31.000  
  20200603.175    -1703553.456        1322.914          51.000  
  21747386.392    -2564472.651        2379.953          49.000  
 16  9 24 21 39 22.4000000  0 10G30G 4G 5G 2G20G24G13G29G15G21
  24898507.100       58096.774        -476.815          39.000  
  22049475.279     1663756.532       -1875.196          48.000  
  22817240.815     2373664.742       -2367.818          43.000  
  24722161.831      119862.892       -2891.724          34.000  
  19952750.578     -409958.833         245.834          48.000  
  25020796.446     -890216.0412       3688.461          29.000  
  20804548.476      204947.935        -510.930          50.000  
  21561678.837     1275573.8612      -2349.271          31.000  
  20200552.779    -1703818.033        1322.455          51.000  
  21747295.547    -2564948.656        2379.651          49.000  
 16  9 24 21 39 22.6000000  0 10G30G 4G 5G 2G20G24G13G29G15G21
  24898524.830       58192.091        -476.717          39.000  
  22049546.720     1664131.538       -1875.049          48.000  
  22817331.067     2374138.339       -2367.662          44.000  
  24722271.593      120441.133       -2890.154          35.000  
  19952741.400     -410008.025         245.981          48.000  
  25020655.064     -890953.8602       3688.667          29.000  
  20804567.915      205050.131        -511.109          50.000  
  21561768.078     1276043.7062      -2348.922          31.000  
  20200502.383    -1704082.593        1323.177          51.000  
  21747205.015    -2565424.660        2380.200          49.000  
 16  9 24 21 39 22.8000000  0 10G30G 4G 5G 2G20G24G13G29G15G21
  24898542.280       58287.457        -476.570          39.000  
  22049617.987     1664506.566       -1875.059          48.000  
  22817421.111     2374611.936       -2367.529          44.000  
  24722381.634      121019.357       -2891.339          34.000  
  19952732.011     -410057.197         245.990          48.000  
  25020517.103     -891691.5563       3687.080          28.000  
  20804587.634      205152.375        -511.048          50.000  
  21561857.213     1276513.5132      -2350.188          31.000  
  20200452.057    -1704347.117        1322.873          51.000  
  21747114.169    -2565900.641        2379.829          49.000  
 16  9 24 21 39 23.0000000  0 10G30G 4G 5G 2G20G24G13G29G15G21
  24898559.975       58382.833        -476.798          39.000  
  22049689.359     1664881.603       -1875.181          48.000  
  22817511.294     2375085.515       -2367.352          44.000  
  24722491.606      121597.626       -2889.979          34.000  
  19952722.589     -410106.377         246.155          48.000  
  25020377.223     -892429.3022       3691.716          28.000  
  20804607.109      205254.619        -510.896          50.000  
  21561946.629     1276983.3782      -2349.060          31.000  
  20200401.766    -1704611.631        1322.647          51.000  
  21747023.638    -2566376.633        2380.249          49.000  
 16  9 24 21 39 23.2000000  0 10G30G 4G 5G 2G20G24G13G29G15G21
  24898577.844       58478.210        -477.675          39.000  
  22049760.695     1665256.636       -1875.224          48.000  
  22817601.512     2375559.088       -2367.914          44.000  
  24722601.647      122175.842       -2889.912          34.000  
  19952713.306     -410155.552         245.803          48.000  
  25020236.749     -893167.0683       3688.952          28.000  
  20804626.444      205356.877        -511.401          50.000  
  21562036.044     1277453.2322      -2350.317          31.000  
  20200351.300    -1704876.133        1322.583          51.000  
  21746932.932    -2566852.630        2380.052          49.000  
 16  9 24 21 39 23.4000000  0 10G30G 4G 5G 2G20G24G13G29G15G21
  24898595.434       58573.613        -476.849          39.000  
  22049832.102     1665631.712       -1875.200          48.000  
  22817691.869     2376032.687       -2367.608          44.000  
  24722711.618      122754.080       -2891.489          34.000  
  19952704.127     -410204.695         245.829          48.000  
  25020094.774     -893904.8872       3686.874          28.000  
  20804645.884      205459.168        -511.266          50.000  
  21562125.424     1277923.1332      -2348.458          31.000  
  20200300.904    -1705140.600        1322.418          51.000  
  21746842.400    -2567328.605        2379.775          49.000  
 16  9 24 21 39 23.6000000  0 10G30G 4G 5G 2G20G24G13G29G15G21
  24898613.025       58669.010        -477.605          39.000  
  22049903.579     1666006.762       -1875.704          47.000  
  22817782.157     2376506.247       -2368.671          44.000  
  24722821.555      123332.323       -2890.566          34.000  
  19952694.879     -410253.864         245.539          48.000  
  25019955.278     -894642.6203       3691.361          28.000  
  20804665.568      205561.465        -511.807          50.000  
  21562214.805     1278392.9972      -2349.039          32.000  
  20200250.543    -1705405.076        1321.865          51.000  
  21746751.800    -2567804.598        2379.854          49.000  
 16  9 24 21 39 23.8000000  0 10G30G 4G 5G 2G20G24G13G29G15G21
  24898630.405       58764.474        -477.140          39.000  
  22049974.636     1666381.868       -1875.517          47.000  
  22817872.549     2376979.868       -2368.048          44.000  
  24722931.562      123910.555       -2891.174          34.000  
  19952685.526     -410302.978         245.765          48.000  
  25019816.583     -895380.4663       3688.239          28.000  
  20804685.008      205663.809        -511.767          50.000  
  21562304.010     1278862.9192      -2349.211          32.000  
  20200200.322    -1705669.488        1321.996          51.000  
  21746661.303    -2568280.561        2379.840          49.000  
 16  9 24 21 39 24.0000000  0 10G30G 4G 5G 2G20G24G13G29G15G21
  24898648.031       58859.956        -477.412          38.000  
  22050045.868     1666756.999       -1875.722          47.000  
  22817962.977     2377453.472       -2368.322          44.000  
  24723041.464      124488.837       -2891.789          34.000  
  19952676.278     -410352.087         245.632          48.000  
  25019678.727     -896118.2442       3688.172          28.000  
  20804704.693      205766.191        -511.909          50.000  
  21562393.356     1279332.8422      -2351.876          32.000  
  20200150.066    -1705933.869        1321.937          51.000  
  21746570.807    -2568756.498        2380.196          49.000  
 16  9 24 21 39 24.2000000  0 10G30G 4G 5G 2G20G24G13G29G15G21
  24898665.481       58955.453        -477.469          38.000  
  22050117.240     1667132.146       -1875.470          47.000  
  22818053.195     2377927.087       -2368.195          44.000  
  24723151.400      125067.115       -2891.558          34.000  
  19952666.994     -410401.173         245.460          48.000  
  25019536.438     -896855.9392       3687.744          28.000  
  20804723.993      205868.597        -511.702          50.000  
  21562483.085     1279802.8172      -2349.548          32.000  
  20200099.670    -1706198.218        1322.061          51.000  
  21746480.066    -2569232.433        2379.298          49.000  
 16  9 24 21 39 24.4000000  0 10G30G 4G 5G 2G20G24G13G29G15G21
  24898683.140       59050.947        -477.542          39.000  
  22050188.507     1667507.272       -1875.532          47.000  
  22818143.343     2378400.678       -2367.626          44.000  
  24723261.337      125645.361       -2891.291          34.000  
  19952657.990     -410450.278         245.402          48.000  
  25019395.894     -897593.8613       3691.364          28.000  
  20804743.362      205970.983        -511.771          50.000  
  21562572.500     1280272.7552      -2350.744          32.000  
  20200049.308    -1706462.604        1321.918          51.000  
  21746389.290    -2569708.401        2379.960          49.000  
 16  9 24 21 39 24.6000000  0 10G30G 4G 5G 2G20G24G13G29G15G21
  24898700.731       59146.474        -476.781          39.000  
  22050259.983     1667882.403       -1875.851          47.000  
  22818233.456     2378874.243       -2368.002          44.000  
  24723371.274      126223.606       -2890.355          34.000  
  19952648.498     -410499.396         245.405          48.000  
  25019253.990     -898331.6033       3695.012          28.000  
  20804763.082      206073.385        -512.160          50.000  
  21562662.091     1280742.7072      -2349.401          32.000  
  20199999.122    -1706726.952        1321.777          51.000  
  21746298.864    -2570184.360        2379.763          49.000  
 16  9 24 21 39 24.8000000  0 10G30G 4G 5G 2G20G24G13G29G15G21
  24898718.495       59241.939        -477.409          39.000  
  22050331.285     1668257.531       -1875.825          48.000  
  22818323.779     2379347.789       -2368.020          44.000  
  24723481.420      126801.807       -2891.339          34.000  
  19952639.110     -410548.514         245.468          48.000  
  25019114.283     -899069.5152       3687.202          28.000  
  20804782.556      206175.776        -511.960          50.000  
  21562751.505     1281212.6552      -2348.829          32.000  
  20199948.866    -1706991.320        1321.602          51.000  
  21746207.983    -2570660.344        2379.550          49.000  
 16  9 24 21 39 25.0000000  0 10G30G 4G 5G 2G20G24G13G29G15G21
  24898736.051       59337.461        -478.027          39.000  
  22050402.797     1668632.664       -1875.787          48.000  
  22818413.893     2379821.333       -2367.596          44.000  
  24723591.322      127380.010       -2891.016          34.000  
  19952629.757     -410597.628         245.275          48.000  
  25018974.334     -899807.3153       3688.623          28.000  
  20804802.101      206278.192        -512.280          50.000  
  21562840.886     1281682.5572      -2350.245          32.000  
  20199898.645    -1707255.659        1321.980          51.000  
  21746117.487    -2571136.319        2379.906          49.000  
 16  9 24 21 39 25.2000000  0 10G30G 4G 5G 2G20G24G13G29G15G21
  24898753.536       59433.006        -477.817          38.000  
  22050474.273     1669007.821       -1875.660          48.000  
  22818504.040     2380294.885       -2367.489          44.000  
  24723701.503      127958.241       -2891.225          34.000  
  19952620.439     -410646.724         245.350          48.000  
  25018834.453     -900545.1883       3689.609          28.000  
  20804821.332      206380.641        -512.288          50.000  
  21562930.406     1282152.5342      -2350.075          32.000  
  20199848.423    -1707519.985        1321.568          51.000  
  21746026.920    -2571612.288        2379.890          49.000  
 16  9 24 21 39 25.4000000  0 10G30G 4G 5G 2G20G24G13G29G15G21
  24898771.196       59528.561        -477.771          38.000  
  22050545.470     1669382.990       -1875.999          48.000  
  22818594.363     2380768.434       -2367.920          44.000  
  24723811.404      128536.483       -2889.867          34.000  
  19952611.016     -410695.808         245.466          48.000  
  25018693.594     -901283.1183       3689.808          28.000  
  20804840.841      206483.113        -512.337          50.000  
  21563019.856     1282622.4922      -2350.001          32.000  
  20199798.097    -1707784.274        1321.136          51.000  
  21745936.214    -2572088.257        2379.643          49.000  
 16  9 24 21 39 25.6000000  0 10G30G 4G 5G 2G20G24G13G29G15G21
  24898788.926       59624.147        -477.899          38.000  
  22050617.017     1669758.182       -1875.862          48.000  
  22818684.721     2381242.004       -2367.833          44.000  
  24723921.376      129114.694       -2891.242          34.000  
  19952601.628     -410744.879         245.283          48.000  
  25018553.086     -902020.9923       3689.033          28.000  
  20804860.630      206585.619        -512.413          50.000  
  21563109.167     1283092.4912      -2349.879          32.000  
  20199747.631    -1708048.537        1320.994          51.000  
  21745845.893    -2572564.197        2380.100          49.000  
 16  9 24 21 39 25.8000000  0 10G30G 4G 5G 2G20G24G13G29G15G21
  24898806.516       59719.697        -478.033          38.000  
  22050688.283     1670133.365       -1875.814          48.000  
  22818775.148     2381715.523       -2367.784          44.000  
  24724031.313      129692.884       -2890.276          34.000  
  19952592.170     -410793.959         245.393          48.000  
  25018413.275     -902758.9053       3691.031          28.000  
  20804880.175      206688.111        -512.083          50.000  
  21563198.791     1283562.4782      -2352.225          32.000  
  20199697.165    -1708312.806        1321.459          51.000  
  21745755.082    -2573040.171        2380.089          49.000  
 16  9 24 21 39 26.0000000  0 10G30G 4G 5G 2G20G24G13G29G15G21
  24898824.176       59815.291        -478.245          38.000  
  22050759.900     1670508.536       -1876.457          48.000  
  22818865.122     2382189.041       -2367.972          45.000  
  24724141.250      130271.100       -2890.117          34.000  
  19952582.853     -410843.062         245.036          48.000  
  25018273.255     -903496.8963       3690.058          28.000  
  20804899.650      206790.612        -512.710          50.000  
  21563288.486     1284032.4792      -2349.916          32.000  
  20199646.944    -1708577.063        1321.194          51.000  
  21745664.516    -2573516.163        2379.284          49.000  
 16  9 24 21 39 26.2000000  0 10G30G 4G 5G 2G20G24G13G29G15G21
  24898841.731       59910.943        -478.146          38.000  
  22050831.236     1670883.784       -1876.027          48.000  
  22818955.235     2382662.608       -2367.744          45.000  
  24724251.256      130849.339       -2890.172          33.000  
  19952573.639     -410892.087         245.191          48.000  
  25018133.374     -904234.8593       3688.586          27.000  
  20804919.194      206893.180        -513.038          50.000  
  21563377.971     1284502.5122      -2350.041          32.000  
  20199596.478    -1708841.249        1320.957          51.000  
  21745573.844    -2573992.085        2379.702          49.000  
 16  9 24 21 39 26.4000000  0 10G30G 4G 5G 2G20G24G13G29G15G21
  24898859.531       60006.565        -477.841          38.000  
  22050902.782     1671259.019       -1875.930          48.000  
  22819045.348     2383136.146       -2367.301          45.000  
  24724361.332      131427.556       -2889.809          33.000  
  19952564.460     -410941.129         245.705          48.000  
  25017993.144     -904972.7753       3690.205          27.000  
  20804938.773      206995.748        -512.367          50.000  
  21563467.700     1284972.5772      -2350.098          32.000  
  20199546.117    -1709105.445        1321.294          51.000  
  21745483.103    -2574468.024        2380.041          49.000  
 16  9 24 21 39 26.6000000  0 10G30G 4G 5G 2G20G24G13G29G15G21
  24898876.982       60102.193        -478.260          38.000  
  22050974.120     1671634.221       -1876.124          48.000  
  22819135.636     2383609.650       -2367.986          45.000  
  24724471.409      132005.731       -2890.829          33.000  
  19952555.003     -410990.205         245.245          48.000  
  25017852.811     -905710.7373       3690.330          27.000  
  20804958.318      207098.302        -512.881          50.000  
  21563557.325     1285442.5522      -2350.080          32.000  
  20199495.896    -1709369.656        1320.726          51.000  
  21745392.538    -2574944.003        2380.052          49.000  
 16  9 24 21 39 26.8000000  0 10G30G 4G 5G 2G20G24G13G29G15G21
  24898894.921       60197.855        -478.621          38.000  
  22051045.631     1672009.488       -1876.134          48.000  
  22819225.993     2384083.188       -2367.842          45.000  
  24724581.450      132583.956       -2890.002          33.000  
  19952545.615     -411039.223         245.424          48.000  
  25017712.685     -906448.7493       3689.514          27.000  
  20804977.793      207200.913        -512.960          50.000  
  21563646.879     1285912.6472      -2350.468          32.000  
  20199445.674    -1709633.798        1320.954          51.000  
  21745301.901    -2575419.934        2379.722          49.000  
 16  9 24 21 39 27.0000000  0 10G30G 4G 5G 2G20G24G13G29G15G21
  24898912.790       60293.554        -478.307          38.000  
  22051117.177     1672384.752       -1876.276          48.000  
  22819316.247     2384556.721       -2367.637          45.000  
  24724691.457      133162.205       -2890.462          33.000  
  19952536.193     -411088.251         245.190          48.000  
  25017572.037     -907186.7523       3690.518          27.000  
  20804997.373      207303.538        -513.108          50.000  
  21563736.609     1286382.7402      -2349.668          33.000  
  20199395.663    -1709897.932        1320.493          51.000  
  21745211.440    -2575895.884        2379.394          49.000  
 16  9 24 21 39 27.2000000  0 10G30G 4G 5G 2G20G24G13G29G15G21
  24898930.659       60389.268        -478.692          38.000  
  22051188.653     1672760.052       -1876.734          48.000  
  22819406.360     2385030.272       -2367.703          45.000  
  24724801.498      133740.429       -2889.610          33.000  
  19952526.944     -411137.245         244.620          48.000  
  25017431.284     -907924.6853       3690.088          27.000  
  20805016.882      207406.202        -513.690          50.000  
  21563826.373     1286852.8462      -2349.950          33.000  
  20199345.406    -1710162.018        1320.412          51.000  
  21745120.838    -2576371.782        2379.468          49.000  
 16  9 24 21 39 27.4000000  0 10G30G 4G 5G 2G20G24G13G29G15G21
  24898948.424       60485.024        -478.403          38.000  
  22051260.025     1673135.376       -1876.639          48.000  
  22819496.787     2385503.833       -2367.467          45.000  
  24724911.469      134318.679       -2890.635          33.000  
  19952517.591     -411186.225         244.789          48.000  
  25017290.635     -908662.7263       3689.115          27.000  
  20805036.252      207508.903        -513.437          50.000  
  21563915.753     1287322.9302      -2349.320          33.000  
  20199295.150    -1710426.091        1320.198          51.000  
  21745030.237    -2576847.679        2379.715          49.000  
 16  9 24 21 39 27.6000000  0 10G30G 4G 5G 2G20G24G13G29G15G21
  24898966.328       60580.797        -478.471          38.000  
  22051331.432     1673510.733       -1877.038          48.000  
  22819587.145     2385977.416       -2368.099          45.000  
  24725021.651      134896.929       -2891.729          33.000  
  19952508.134     -411235.162         244.808          48.000  
  25017149.638     -909400.6733       3689.150          26.000  
  20805055.832      207611.643        -513.500          50.000  
  21564005.448     1287793.0642      -2350.961          33.000  
  20199244.719    -1710690.109        1320.234          51.000  
  21744939.811    -2577323.552        2379.447          49.000  
 16  9 24 21 39 27.8000000  0 10G30G 4G 5G 2G20G24G13G29G15G21
  24898984.058       60676.613        -478.735          38.000  
  22051403.082     1673886.109       -1876.779          48.000  
  22819677.432     2386450.992       -2367.818          45.000  
  24725131.866      135475.234       -2889.723          32.000  
  19952498.641     -411284.100         244.514          48.000  
  25017009.478     -910138.6763       3689.224          26.000  
  20805075.551      207714.402        -513.737          50.000  
  21564094.863     1288263.2412      -2350.346          33.000  
  20199194.672    -1710954.109        1319.871          51.000  
  21744849.070    -2577799.417        2379.557          49.000  
 16  9 24 21 39 28.0000000  0 10G30G 4G 5G 2G20G24G13G29G15G21
  24899001.857       60772.442        -478.991          38.000  
  22051474.454     1674261.499       -1876.585          48.000  
  22819767.545     2386924.568       -2367.581          45.000  
  24725241.977      136053.456       -2891.155          32.000  
  19952489.322     -411333.017         244.793          48.000  
  25016868.271     -910876.6343       3691.478          26.000  
  20805094.990      207817.194        -513.946          50.000  
  21564184.487     1288733.4102      -2350.816          33.000  
  20199144.381    -1711218.082        1320.107          51.000  
  21744758.538    -2578275.290        2379.698          49.000  
 16  9 24 21 39 28.2000000  0 10G30G 4G 5G 2G20G24G13G29G15G21
  24899019.552       60868.254        -478.263          38.000  
  22051545.721     1674636.864       -1876.648          48.000  
  22819857.729     2387398.120       -2367.521          45.000  
  24725352.019      136631.728       -2891.858          32.000  
  19952479.935     -411381.971         244.716          48.000  
  25016726.890     -911614.5913       3690.359          26.000  
  20805114.814      207919.958        -513.864          50.000  
  21564274.182     1289203.5932      -2350.642          33.000  
  20199094.265    -1711482.063        1320.176          51.000  
  21744668.147    -2578751.175        2379.620          49.000  
 16  9 24 21 39 28.4000000  0 10G30G 4G 5G 2G20G24G13G29G15G21
  24899037.421       60964.075        -480.135          38.000  
  22051617.267     1675012.226       -1877.108          48.000  
  22819947.842     2387871.643       -2368.090          45.000  
  24725462.025      137209.956       -2892.210          32.000  
  19952470.477     -411430.920         244.663          48.000  
  25016586.800     -912352.7443       3689.708          26.000  
  20805134.219      208022.731        -514.215          50.000  
  21564363.737     1289673.7562      -2350.331          33.000  
  20199044.113    -1711746.058        1319.574          51.000  
  21744577.440    -2579227.082        2379.175          49.000  
 16  9 24 21 39 28.6000000  0 10G30G 4G 5G 2G20G24G13G29G15G21
  24899055.117       61059.970        -479.378          38.000  
  22051688.674     1675387.664       -1877.156          48.000  
  22820038.200     2388345.221       -2367.559          45.000  
  24725571.997      137788.214       -2892.724          32.000  
  19952461.089     -411479.816         244.988          48.000  
  25016445.489     -913090.6723       3692.020          26.000  
  20805153.869      208125.575        -513.941          50.000  
  21564453.432     1290144.0192      -2349.913          33.000  
  20198993.892    -1712009.963        1319.974          51.000  
  21744486.875    -2579702.925        2379.535          49.000  
 16  9 24 21 39 28.8000000  0 10G30G 4G 5G 2G20G24G13G29G15G21
  24899072.776       61155.820        -480.388          38.000  
  22051760.081     1675763.072       -1877.724          48.000  
  22820128.592     2388818.773       -2368.149          45.000  
  24725682.073      138366.483       -2892.047          32.000  
  19952452.015     -411528.727         244.041          48.000  
  25016304.665     -913828.7623       3690.272          25.000  
  20805173.378      208228.415        -514.851          50.000  
  21564543.021     1290614.2182      -2351.972          33.000  
  20198943.740    -1712273.891        1318.977          51.000  
  21744396.203    -2580178.805        2378.937          49.000  
 16  9 24 21 39 29.0000000  0 10G30G 4G 5G 2G20G24G13G29G15G21
  24899090.436       61251.717        -479.194          37.000  
  22051831.487     1676138.521       -1877.082          48.000  
  22820219.089     2389292.333       -2367.589          45.000  
  24725792.149      138944.764       -2891.949          32.000  
  19952442.802     -411577.605         245.024          48.000  
  25016165.029     -914566.7783       3690.543          25.000  
  20805192.818      208331.298        -514.340          50.000  
  21564632.611     1291084.4272      -2351.366          33.000  
  20198893.518    -1712537.768        1319.746          51.000  
  21744305.741    -2580654.644        2379.306          49.000  
 16  9 24 21 39 29.2000000  0 10G30G 4G 5G 2G20G24G13G29G15G21
  24899108.271       61347.644        -480.389          37.000  
  22051903.138     1676513.975       -1877.631          48.000  
  22820309.342     2389765.904       -2367.769          46.000  
  24725901.912      139523.025       -2891.554          32.000  
  19952433.484     -411626.479         244.542          48.000  
  25016023.892     -915304.8263       3690.852          25.000  
  20805212.433      208434.200        -514.273          50.000  
  21564722.201     1291554.7202      -2352.020          33.000  
  20198843.192    -1712801.625        1319.584          51.000  
  21744215.106    -2581130.485        2379.185          49.000  
 16  9 24 21 39 29.4000000  0 10G30G 4G 5G 2G20G24G13G29G15G21
  24899126.000       61443.548        -478.823          37.000  
  22051974.719     1676889.395       -1876.577          48.000  
  22820399.560     2390239.412       -2367.267          46.000  
  24726011.848      140101.228       -2890.062          32.000  
  19952424.026     -411675.394         244.916          48.000  
  25015883.976     -916042.9623       3690.741          25.000  
  20805231.907      208537.064        -514.063          50.000  
  21564811.825     1292024.8562      -2350.729          33.000  
  20198793.006    -1713065.517        1319.744          51.000  
  21744124.574    -2581606.381        2379.941          49.000  
 16  9 24 21 39 29.6000000  0 10G30G 4G 5G 2G20G24G13G29G15G21
  24899143.801       61539.432        -478.012          37.000  
  22052046.091     1677264.807       -1877.357          48.000  
  22820489.848     2390712.894       -2367.678          46.000  
  24726121.960      140679.459       -2889.656          32.000  
  19952414.708     -411724.336         244.576          48.000  
  25015743.643     -916781.1073       3691.209          25.000  
  20805251.627      208639.927        -514.347          50.000  
  21564901.625     1292495.1012      -2352.098          33.000  
  20198742.820    -1713329.416        1319.496          51.000  
  21744034.287    -2582082.285        2379.655          49.000  
 16  9 24 21 39 29.8000000  0 10G30G 4G 5G 2G20G24G13G29G15G21
  24899161.844       61635.8193       -479.705          37.000  
  22052117.568     1677640.253       -1877.099          48.000  
  22820579.856     2391186.387       -2367.823          46.000  
  24726231.896      141257.621       -2891.842          32.000  
  19952405.355     -411773.253         244.083          48.000  
  25015603.029     -917519.2203       3689.943          24.000  
  20805271.241      208742.824        -514.693          50.000  
  21564991.075     1292965.3203      -2352.770          33.000  
  20198692.563    -1713593.283        1319.153          51.000  
  21743943.791    -2582558.181        2379.544          50.000  
 16  9 24 21 39 30.0000000  0 10G30G 4G 5G 2G20G24G13G29G15G21
  24899179.713       61731.8102       -479.826          37.000  
  22052189.218     1678015.740       -1877.106          48.000  
  22820670.213     2391659.940       -2367.237          46.000  
  24726341.937      141835.898       -2893.094          32.000  
  19952396.002     -411822.100         244.540          48.000  
  25015463.253     -918257.3583       3690.243          24.000  
  20805290.925      208845.798        -514.370          50.000  
  21565080.559     1293435.6322      -2352.257          33.000  
  20198642.341    -1713857.073        1319.259          51.000  
  21743853.398    -2583034.018        2379.903          50.000  
 16  9 24 21 39 30.2000000  0 10G30G 4G 5G 2G20G24G13G29G15G21
  24899197.478       61827.7882       -480.334          37.000  
  22052260.660     1678391.210       -1877.501          48.000  
  22820760.432     2392133.441       -2368.027          46.000  
  24726452.224      142414.143       -2890.481          32.000  
  19952386.789     -411870.979         244.262          48.000  
  25015323.547     -918995.4883       3691.942          24.000  
  20805310.504      208948.733        -515.179          50.000  
  21565170.324     1293905.8852      -2350.897          33.000  
  20198592.225    -1714120.883        1318.814          51.000  
  21743762.833    -2583509.901        2379.123          49.000  
 16  9 24 21 39 30.4000000  0 10G30G 4G 5G 2G20G24G13G29G15G21
  24899215.557       61923.7872       -480.042          37.000  
  22052332.311     1678766.713       -1877.551          48.000  
  22820850.754     2392606.964       -2367.495          46.000  
  24726562.335      142992.397       -2890.894          32.000  
  19952377.470     -411919.832         244.474          48.000  
  25015184.085     -919733.6603       3690.428          24.000  
  20805330.188      209051.721        -515.206          50.000  
  21565259.949     1294376.1762      -2351.936          33.000  
  20198541.934    -1714384.654        1318.850          51.000  
  21743672.475    -2583985.741        2379.242          49.000  
 16  9 24 21 39 30.6000000  0 10G30G 4G 5G 2G20G24G13G29G15G21
  24899233.252       62019.7692       -480.131          37.000  
  22052403.613     1679142.229       -1877.476          48.000  
  22820941.077     2393080.491       -2367.324          46.000  
  24726672.376      143570.641       -2891.557          32.000  
  19952368.188     -411968.674         244.568          48.000  
  25015044.309     -920471.8803       3690.179          23.000  
  20805349.629      209154.727        -515.027          50.000  
  21565349.783     1294846.4612      -2350.485          33.000  
  20198491.748    -1714648.407        1318.886          51.000  
  21743581.875    -2584461.589        2379.502          50.000  
 16  9 24 21 39 30.8000000  0 10G30G 4G 5G 2G20G24G13G29G15G21
  24899251.330       62115.7982       -480.539          37.000  
  22052475.194     1679517.753       -1877.762          48.000  
  22821031.295     2393553.997       -2367.738          46.000  
  24726782.452      144148.865       -2891.200          32.000  
  19952358.800     -412017.525         244.132          47.000  
  25014904.219     -921209.9653       3690.374          23.000  
  20805369.208      209257.753        -515.271          50.000  
  21565439.338     1295316.7752      -2350.493          33.000  
  20198441.421    -1714912.145        1318.220          50.000  
  21743491.238    -2584937.445        2379.120          49.000  
 16  9 24 21 39 31.0000000  0 10G30G 4G 5G 2G20G24G13G29G15G21
  24899269.374       62211.8032       -480.206          37.000  
  22052546.740     1679893.253       -1877.657          48.000  
  22821121.617     2394027.473       -2367.156          46.000  
  24726892.284      144727.085       -2889.994          32.000  
  19952349.167     -412066.395         244.209          47.000  
  25014764.094     -921948.2473       3690.185          23.000  
  20805388.752      209360.746        -515.210          50.000  
  21565529.136     1295787.0912      -2349.576          33.000  
  20198391.130    -1715175.898        1318.739          50.000  
  21743400.637    -2585413.323        2379.150          49.000  
 16  9 24 21 39 31.2000000  0 10G30G 4G 5G 2G20G24G13G29G15G21
  24899287.279       62307.8322       -481.264          37.000  
  22052618.077     1680268.796       -1877.656          48.000  
  22821211.766     2394500.963       -2368.221          46.000  
  24727002.082      145305.254       -2891.326          32.000  
  19952339.884     -412115.233         244.213          47.000  
  25014624.528     -922686.4983       3691.276          23.000  
  20805408.472      209463.800        -515.280          50.000  
  21565618.692     1296257.3862      -2350.979          33.000  
  20198340.699    -1715439.606        1318.460          50.000  
  21743310.246    -2585889.178        2379.070          50.000  
 16  9 24 21 39 31.4000000  0 10G30G 4G 5G 2G20G24G13G29G15G21
  24899305.287       62403.9092       -480.426          37.000  
  22052689.449     1680644.351       -1877.315          48.000  
  22821302.123     2394974.461       -2367.492          46.000  
  24727112.018      145883.478       -2891.443          32.000  
  19952330.531     -412164.071         244.038          47.000  
  25014484.507     -923424.6473       3689.294          23.000  
  20805427.981      209566.864        -515.307          50.000  
  21565708.246     1296727.6812      -2351.105          34.000  
  20198290.373    -1715703.307        1318.283          50.000  
  21743219.469    -2586365.028        2379.254          50.000  
 16  9 24 21 39 31.6000000  0 10G30G 4G 5G 2G20G24G13G29G15G21
  24899323.541       62499.9362       -479.675          37.000  
  22052760.960     1681019.854       -1877.239          48.000  
  22821392.341     2395447.894       -2367.279          46.000  
  24727222.060      146461.642       -2889.934          31.000  
  19952321.248     -412212.941         244.460          47.000  
  25014344.418     -924162.8593       3690.644          23.000  
  20805447.736      209669.904        -514.973          50.000  
  21565797.802     1297197.9642      -2351.377          34.000  
  20198240.292    -1715967.027        1318.434          50.000  
  21743128.939    -2586840.930        2379.575          50.000  
 16  9 24 21 39 31.8000000  0 10G30G 4G 5G 2G20G24G13G29G15G21
  24899341.550       62595.9992       -480.998          37.000  
  22052832.262     1681395.414       -1877.798          48.000  
  22821482.350     2395921.365       -2367.104          46.000  
  24727332.206      147039.853       -2892.036          31.000  
  19952311.965     -412261.768         244.131          47.000  
  25014204.851     -924901.1693       3690.772          23.000  
  20805467.384      209772.992        -515.468          50.000  
  21565887.531     1297668.3042      -2351.499          33.000  
  20198189.930    -1716230.689        1318.500          50.000  
  21743038.512    -2587316.788        2379.371          50.000  
 16  9 24 21 39 32.0000000  0 10G30G 4G 5G 2G20G24G13G29G15G21
  24899359.558       62692.0732       -480.282          37.000  
  22052903.633     1681770.957       -1878.074          48.000  
  22821572.637     2396394.817       -2367.239          46.000  
  24727442.212      147618.070       -2890.615          31.000  
  19952302.646     -412310.610         243.947          47.000  
  25014065.110     -925639.4233       3693.042          23.000  
  20805486.929      209876.089        -515.575          50.000  
  21565977.120     1298138.6192      -2351.487          33.000  
  20198139.674    -1716494.354        1318.164          50.000  
  21742947.701    -2587792.658        2379.133          50.000  
 16  9 24 21 39 32.2000000  0 10G30G 4G 5G 2G20G24G13G29G15G21
  24899377.777       62788.2002       -479.175          37.000  
  22052975.320     1682146.543       -1877.738          48.000  
  22821662.751     2396868.284       -2366.909          46.000  
  24727552.010      148196.249       -2893.374          31.000  
  19952293.399     -412359.428         243.796          47.000  
  25013925.229     -926377.6733       3692.057          23.000  
  20805506.683      209979.210        -515.827          50.000  
  21566066.850     1298608.9842      -2352.546          34.000  
  20198089.418    -1716757.983        1318.271          50.000  
  21742856.891    -2588268.522        2379.415          50.000  
 16  9 24 21 39 32.4000000  0 10G30G 4G 5G 2G20G24G13G29G15G21
  24899395.925       62884.3012       -480.912          36.000  
  22053046.621     1682522.122       -1878.566          48.000  
  22821752.724     2397341.736       -2367.325          46.000  
  24727661.946      148774.457       -2891.199          31.000  
  19952284.220     -412408.249         243.598          47.000  
  25013785.174     -927116.0193       3689.525          22.000  
  20805526.297      210082.360        -515.762          50.000  
  21566156.649     1299079.3332      -2352.057          34.000  
  20198039.231    -1717021.606        1317.838          50.000  
  21742766.254    -2588744.386        2379.044          49.000  
 16  9 24 21 39 32.6000000  0 10G30G 4G 5G 2G20G24G13G29G15G21
  24899414.004       62980.4462       -480.022          36.000  
  22053118.167     1682897.736       -1877.713          48.000  
  22821843.361     2397815.191       -2367.164          47.000  
  24727771.917      149352.629       -2891.918          31.000  
  19952274.692     -412457.045         243.860          47.000  
  25013645.363     -927854.2653       3688.204          22.000  
  20805545.841      210185.534        -515.656          50.000  
  21566246.203     1299549.7372      -2352.511          34.000  
  20197989.044    -1717285.197        1317.969          50.000  
  21742675.618    -2589220.225        2379.456          49.000  
 16  9 24 21 39 32.8000000  0 10G30G 4G 5G 2G20G24G13G29G15G21
  24899431.874       63076.5822       -481.376          36.000  
  22053189.539     1683273.363       -1878.282          48.000  
  22821933.614     2398288.655       -2367.555          47.000  
  24727881.785      149930.864       -2889.431          31.000  
  19952265.374     -412505.829         243.812          47.000  
  25013505.064     -928591.7703       3700.698          22.000  
  20805565.456      210288.722        -516.050          50.000  
  21566335.898     1300020.1562      -2352.935          34.000  
  20197938.928    -1717548.757        1317.664          50.000  
  21742584.947    -2589696.066        2378.999          49.000  
 16  9 24 21 39 33.0000000  0 10G30G 4G 5G 2G20G24G13G29G15G21
  24899450.336       63172.7512       -480.990          36.000  
  22053260.981     1683648.968       -1877.734          48.000  
  22822024.076     2398762.096       -2367.145          47.000  
  24727991.616      150509.039       -2891.761          31.000  
  19952256.231     -412554.634         244.032          47.000  
  25013364.555     -929331.7333       3693.328          22.000  
  20805585.105      210391.910        -515.820          50.000  
  21566425.557     1300490.4892      -2353.134          34.000  
  20197888.776    -1717812.325        1317.794          50.000  
  21742494.520    -2590171.929        2379.621          49.000  
 16  9 24 21 39 33.2000000  0 10G30G 4G 5G 2G20G24G13G29G15G21
  24899468.380       63268.8982       -480.688          36.000  
  22053332.527     1684024.563       -1878.286          48.000  
  22822114.364     2399235.510       -2367.298          47.000  
  24728101.658      151087.193       -2888.055          31.000  
  19952247.157     -412603.452         243.548          47.000  
  25013225.024     -930070.0523       3689.726          22.000  
  20805604.790      210495.093        -516.169          50.000  
  21566515.497     1300960.8762      -2352.344          34.000  
  20197838.590    -1718075.901        1317.865          50.000  
  21742404.164    -2590647.804        2379.392          49.000  
 16  9 24 21 39 33.4000000  0 10G30G 4G 5G 2G20G24G13G29G15G21
  24899486.668       63365.1212       -481.686          36.000  
  22053404.003     1684400.228       -1878.092          48.000  
  22822204.896     2399708.969       -2366.792          47.000  
  24728211.350      151665.386       -2892.312          31.000  
  19952237.769     -412652.204         243.846          47.000  
  25013085.178     -930807.7283       3687.436          22.000  
  20805624.509      210598.357        -516.078          50.000  
  21566604.912     1301431.3182      -2351.995          34.000  
  20197788.403    -1718339.396        1317.941          50.000  
  21742313.737    -2591123.630        2379.109          49.000  
 16  9 24 21 39 33.6000000  0 10G30G 4G 5G 2G20G24G13G29G15G21
  24899504.921       63461.3262       -480.803          36.000  
  22053475.375     1684775.874       -1878.881          48.000  
  22822295.114     2400182.392       -2367.602          47.000  
  24728321.461      152244.0623      -2891.450          31.000  
  19952228.486     -412700.982         243.648          47.000  
  25012944.738     -931546.4083       3696.182          21.000  
  20805644.053      210701.612        -516.330          50.000  
  21566694.466     1301901.7192      -2352.937          34.000  
  20197738.286    -1718602.913        1317.205          50.000  
  21742223.170    -2591599.476        2379.055          49.000  
 16  9 24 21 39 33.8000000  0 10G30G 4G 5G 2G20G24G13G29G15G21
  24899523.140       63557.5932       -480.295          36.000  
  22053546.817     1685151.569       -1878.548          48.000  
  22822385.367     2400655.847       -2367.407          47.000  
  24728431.398      152822.3022      -2890.510          32.000  
  19952219.377     -412749.719         243.822          47.000  
  25012805.451     -932285.3093       3692.744          22.000  
  20805663.633      210804.900        -516.441          50.000  
  21566784.161     1302372.1902      -2352.474          34.000  
  20197687.961    -1718866.374        1317.248          50.000  
  21742132.465    -2592075.302        2379.336          49.000  
 16  9 24 21 39 34.0000000  0 10G30G 4G 5G 2G20G24G13G29G15G21
  24899541.218       63653.7952       -481.677          36.000  
  22053618.188     1685527.212       -1878.165          48.000  
  22822475.480     2401129.256       -2367.083          47.000  
  24728541.370      153400.4532      -2889.830          32.000  
  19952209.884     -412798.502         243.973          47.000  
  25012666.094     -933023.6313       3690.829          21.000  
  20805683.422      210908.169        -516.317          50.000  
  21566873.611     1302842.6302      -2351.183          34.000  
  20197637.844    -1719129.861        1317.465          50.000  
  21742041.758    -2592551.169        2379.109          49.000  
 16  9 24 21 39 34.2000000  0 10G30G 4G 5G 2G20G24G13G29G15G21
  24899559.577       63750.0622       -480.898          35.000  
  22053689.456     1685902.896       -1878.612          48.000  
  22822565.629     2401602.675       -2367.345          47.000  
  24728651.412      153978.6202      -2891.322          32.000  
  19952200.602     -412847.267         243.694          47.000  
  25012526.179     -933762.3703       3695.069          21.000  
  20805702.897      211011.471        -516.648          50.000  
  21566963.341     1303313.0682      -2351.794          34.000  
  20197587.693    -1719393.323        1316.949          50.000  
  21741951.332    -2593027.014        2379.107          49.000  
 16  9 24 21 39 34.4000000  0 10G30G 4G 5G 2G20G24G13G29G15G21
  24899577.935       63846.3442       -481.916          35.000  
  22053760.897     1686278.597       -1878.530          48.000  
  22822655.951     2402076.108       -2367.143          47.000  
  24728761.383      154556.7902      -2891.331          32.000  
  19952191.109     -412896.002         243.500          47.000  
  25012386.333     -934500.9143       3690.181          21.000  
  20805722.755      211114.807        -516.665          50.000  
  21567052.791     1303783.5272      -2352.400          34.000  
  20197537.366    -1719656.741        1317.352          50.000  
  21741860.835    -2593502.837        2379.151          49.000  
 16  9 24 21 39 34.6000000  0 10G30G 4G 5G 2G20G24G13G29G15G21
  24899596.048       63942.6192       -480.219          35.000  
  22053832.513     1686654.292       -1878.528          48.000  
  22822745.959     2402549.512       -2367.018          47.000  
  24728871.389      155134.9762      -2890.598          32.000  
  19952181.825     -412944.754         243.829          47.000  
  25012246.976     -935238.9343       3690.084          21.000  
  20805742.404      211218.133        -516.687          50.000  
  21567142.240     1304254.0132      -2351.689          34.000  
  20197487.179    -1719920.183        1316.909          50.000  
  21741770.025    -2593978.690        2379.359          49.000  
 16  9 24 21 39 34.8000000  0 10G30G 4G 5G 2G20G24G13G29G15G21
  24899614.337       64038.8912       -481.348          35.000  
  22053904.094     1687029.993       -1878.649          48.000  
  22822836.108     2403022.910       -2367.008          47.000  
  24728981.501      155713.1122      -2890.447          31.000  
  19952172.508     -412993.510         243.520          47.000  
  25012107.026     -935976.5383       3684.665          21.000  
  20805762.228      211321.479        -516.875          50.000  
  21567231.935     1304724.4412      -2353.700          34.000  
  20197437.238    -1720183.593        1317.026          50.000  
  21741679.424    -2594454.549        2379.352          49.000  
 16  9 24 21 39 35.0000000  0 10G30G 4G 5G 2G20G24G13G29G15G21
  24899632.520       64135.2222       -480.480          35.000  
  22053975.605     1687405.734       -1878.704          48.000  
  22822926.360     2403496.325       -2367.150          47.000  
  24729091.472      156291.3132      -2891.641          31.000  
  19952163.259     -413042.214         243.497          47.000  
  25011966.900     -936713.4053       3683.985          21.000  
  20805781.947      211424.872        -516.864          50.000  
  21567321.490     1305194.9742      -2352.599          34.000  
  20197387.365    -1720446.959        1316.691          50.000  
  21741588.857    -2594930.370        2379.002          49.000  
 16  9 24 21 39 35.2000000  0 10G30G 4G 5G 2G20G24G13G29G15G21
  24899651.053       64231.5432       -481.607          36.000  
  22054047.082     1687781.470       -1878.444          48.000  
  22823016.683     2403969.734       -2367.408          47.000  
  24729201.270      156869.4642      -2891.340          31.000  
  19952153.907     -413090.932         243.727          47.000  
  25011827.020     -937451.6023       3691.924          21.000  
  20805801.702      211528.269        -516.900          50.000  
  21567410.941     1305665.4522      -2353.271          34.000  
  20197337.388    -1720710.315        1316.798          50.000  
  21741498.256    -2595406.196        2379.223          49.000  
 16  9 24 21 39 35.4000000  0 10G30G 4G 5G 2G20G24G13G29G15G21
  24899669.620       64327.8732       -480.846          36.000  
  22054118.663     1688157.189       -1878.550          48.000  
  22823107.006     2404443.120       -2366.757          48.000  
  24729311.101      157447.6382      -2891.250          31.000  
  19952144.623     -413139.674         243.230          47.000  
  25011686.825     -938190.0623       3676.931          21.000  
  20805821.141      211631.658        -516.733          50.000  
  21567500.635     1306135.9402      -2351.105          33.000  
  20197287.062    -1720973.686        1316.911          50.000  
  21741407.760    -2595882.056        2378.952          49.000  
 16  9 24 21 39 35.6000000  0 10G30G 4G 5G 2G20G24G13G29G15G21
  24899687.942       64424.1822       -481.936          36.000  
  22054190.069     1688532.921       -1878.915          48.000  
  22823197.084     2404916.491       -2367.067          48.000  
  24729421.003      158025.7272      -2890.645          31.000  
  19952135.409     -413188.411         243.576          47.000  
  25011547.363     -938926.6043       3689.025          21.000  
  20805840.825      211735.060        -517.050          50.000  
  21567590.399     1306606.4072      -2353.632          33.000  
  20197236.770    -1721237.039        1316.763          50.000  
  21741317.228    -2596357.905        2379.080          49.000  
 16  9 24 21 39 35.8000000  0 10G30G 4G 5G 2G20G24G13G29G15G21
  24899706.441       64520.5672       -482.197          36.000  
  22054261.686     1688908.700       -1878.955          48.000  
  22823287.198     2405389.913       -2366.945          48.000  
  24729531.010      158603.8622      -2892.162          31.000  
  19952126.162     -413237.086         243.850          47.000  
  25011406.820     -939666.0923       3697.472          21.000  
  20805860.440      211838.534        -517.257          50.000  
  21567679.954     1307076.9392      -2351.902          33.000  
  20197186.689    -1721500.329        1316.477          50.000  
  21741226.732    -2596833.712        2379.225          49.000  
 16  9 24 21 39 36.0000000  0 10G30G 4G 5G 2G20G24G13G29G15G21
  24899724.693       64616.9432       -481.802          36.000  
  22054333.267     1689284.460       -1878.718          48.000  
  22823377.450     2405863.274       -2366.913          48.000  
  24729641.051      159182.0792      -2892.318          31.000  
  19952116.808     -413285.810         244.019          47.000  
  25011267.113     -940405.4413       3687.918          21.000  
  20805879.914      211941.980        -517.052          50.000  
  21567769.683     1307547.4582      -2352.506          34.000  
  20197136.467    -1721763.646        1316.640          50.000  
  21741136.165    -2597309.567        2379.205          49.000  
 16  9 24 21 39 36.2000000  0 10G30G 4G 5G 2G20G24G13G29G15G21
  24899743.051       64712.814        -481.779          36.000  
  22054404.708     1689660.225       -1879.198          48.000  
  22823467.668     2406336.642       -2366.837          48.000  
  24729751.022      159760.1992      -2893.335          31.000  
  19952107.525     -413334.524         243.008          47.000  
  25011127.372     -941143.1763       3692.327          21.000  
  20805899.598      212045.439        -517.447          50.000  
  21567859.238     1308017.965       -2353.751          34.000  
  20197086.350    -1722026.931        1316.380          50.000  
  21741045.459    -2597785.412        2379.149          49.000  
 16  9 24 21 39 36.4000000  0 10G30G 4G 5G 2G20G24G13G29G15G21
  24899761.619       64809.234        -481.838          36.000  
  22054476.324     1690036.042       -1879.099          48.000  
  22823557.921     2406810.035       -2366.837          48.000  
  24729860.959      160338.3662      -2891.102          31.000  
  19952098.172     -413383.197         243.526          47.000  
  25010987.841     -941880.9153       3687.419          21.000  
  20805919.318      212148.947        -517.687          50.000  
  21567948.932     1308488.521       -2352.553          34.000  
  20197036.164    -1722290.183        1316.128          50.000  
  21740954.963    -2598261.233        2378.792          49.000  
 16  9 24 21 39 36.6000000  0 10G30G 4G 5G 2G20G24G13G29G15G21
  24899780.465       64905.670        -482.293          36.000  
  22054547.766     1690411.843       -1879.255          48.000  
  22823647.964     2407283.411       -2366.932          48.000  
  24729970.826      160916.4912      -2890.770          31.000  
  19952088.784     -413431.877         243.122          47.000  
  25010847.716     -942618.5023       3694.357          21.000  
  20805939.281      212252.464        -517.906          50.000  
  21568038.452     1308959.096       -2352.430          34.000  
  20196986.047    -1722553.416        1316.260          50.000  
  21740864.536    -2598737.050        2378.978          49.000  
 16  9 24 21 39 36.8000000  0 10G30G 4G 5G 2G20G24G13G29G15G21
  24899798.928       65002.099        -482.883          36.000  
  22054619.312     1690787.676       -1879.072          48.000  
  22823738.252     2407756.810       -2366.730          48.000  
  24730080.658      161494.7382      -2890.200          31.000  
  19952079.536     -413480.527         243.598          47.000  
  25010708.045     -943357.3703       3694.357          21.000  
  20805958.826      212356.019        -517.563          50.000  
  21568128.182     1309429.666       -2352.682          34.000  
  20196935.792    -1722816.624        1315.830          50.000  
  21740773.866    -2599212.856        2378.992          49.000  
 16  9 24 21 39 37.0000000  0 10G30G 4G 5G 2G20G24G13G29G15G21
  24899817.495       65098.583        -481.762          36.000  
  22054690.858     1691163.504       -1879.360          48.000  
  22823828.296     2408230.168       -2367.449          48.000  
  24730190.665      162072.8212      -2891.357          31.000  
  19952070.323     -413529.202         243.098          47.000  
  25010567.710     -944097.7403       3702.898          21.000  
  20805978.510      212459.569        -517.784          50.000  
  21568217.702     1309900.263       -2353.849          34.000  
  20196885.709    -1723079.838        1315.931          50.000  
  21740683.299    -2599688.683        2378.639          49.000  
 16  9 24 21 39 37.2000000  0 10G30G 4G 5G 2G20G24G13G29G15G21
  24899836.167       65195.084        -484.332          36.000  
  22054762.439     1691539.393       -1879.567          48.000  
  22823918.513     2408703.585       -2367.095          48.000  
  24730300.601      162651.0132      -2889.940          31.000  
  19952060.830     -413577.811         242.758          47.000  
  25010426.573     -944836.4273       3689.003          21.000  
  20805998.159      212563.181        -518.195          50.000  
  21568307.605     1310370.882       -2352.320          33.000  
  20196835.523    -1723342.979        1315.529          50.000  
  21740592.767    -2600164.452        2378.960          49.000  
 16  9 24 21 39 37.4000000  0 10G30G 4G 5G 2G20G24G13G29G15G21
  24899854.700       65291.585        -482.300          36.000  
  22054833.951     1691915.254       -1878.902          48.000  
  22824008.732     2409176.956       -2366.735          48.000  
  24730410.364      163229.1912      -2891.462          31.000  
  19952051.582     -413626.454         242.907          47.000  
  25010286.309     -945574.3743       3689.967          20.000  
  20806017.913      212666.779        -517.977          50.000  
  21568397.195     1310841.499       -2352.717          33.000  
  20196785.406    -1723606.132        1316.097          50.000  
  21740502.376    -2600640.252        2379.186          49.000  
 16  9 24 21 39 37.6000000  0 10G30G 4G 5G 2G20G24G13G29G15G21
  24899873.093       65388.089        -482.383          36.000  
  22054905.392     1692291.115       -1879.640          48.000  
